{"type":"FeatureCollection","features":[
{"type": "Feature", "geometry": {"type": "Point", "coordinates": [-170.7136, -14.3306]}, "properties": {"STATION_ID": "AQW00061705", "STATION_NAME": "PAGO PAGO WSO AP", "STATE": "AS", "COUNTRY": "AQ", "LATITUDE": -14.3306, "LONGITUDE": -170.7136, "ELEVATION": 3.7, "OBJECTID": 1}},
{"type": "Feature", "geometry": {"type": "Point", "coordinates": [138.0833, 9.4833]}, "properties": {"STATION_ID": "FMW00040308", "STATION_NAME": "YAP ISLAND WSO AP", "STATE": "FM", "COUNTRY": "FM", "LATITUDE": 9.4833, "LONGITUDE": 138.0833, "ELEVATION": 13.4, "OBJECTID": 2}},
{"type": "Feature", "geometry": {"type": "Point", "coordinates": [151.8333, 7.45]}, "properties": {"STATION_ID": "FMW00040505", "STATION_NAME": "CHUUK WSO AP", "STATE": "FM", "COUNTRY": "FM", "LATITUDE": 7.45, "LONGITUDE": 151.8333, "ELEVATION": 1.5, "OBJECTID": 3}},
{"type": "Feature", "geometry": {"type": "Point", "coordinates": [144.9167, 13.5833]}, "properties": {"STATION_ID": "GQW00041414", "STATION_NAME": "GUAM MARSHALL ISLAND", "STATE": "GU", "COUNTRY": "GQ", "LATITUDE": 13.5833, "LONGITUDE": 144.9167, "ELEVATION": 191.1, "OBJECTID": 4}},
{"type": "Feature", "geometry": {"type": "Point", "coordinates": [144.7961, 13.4836]}, "properties": {"STATION_ID": "GQW00041415", "STATION_NAME": "GUAM INTL AP", "STATE": "GU", "COUNTRY": "GQ", "LATITUDE": 13.4836, "LONGITUDE": 144.7961, "ELEVATION": 77.4, "OBJECTID": 5}},
{"type": "Feature", "geometry": {"type": "Point", "coordinates": [167.7333, 8.7333]}, "properties": {"STATION_ID": "RMW00040604", "STATION_NAME": "KWAJALEIN", "STATE": "MH", "COUNTRY": "RM", "LATITUDE": 8.7333, "LONGITUDE": 167.7333, "ELEVATION": 2.1, "OBJECTID": 6}},
{"type": "Feature", "geometry": {"type": "Point", "coordinates": [-114.2636, 48.3042]}, "properties": {"STATION_ID": "USC00244558", "STATION_NAME": "KALISPELL GLACIER AP", "STATE": "MT", "COUNTRY": "US", "LATITUDE": 48.3042, "LONGITUDE": -114.2636, "ELEVATION": 901.3, "OBJECTID": 7}},
{"type": "Feature", "geometry": {"type": "Point", "coordinates": [-104.6575, 39.8328]}, "properties": {"STATION_ID": "USW00003017", "STATION_NAME": "DENVER INTL AP", "STATE": "CO", "COUNTRY": "US", "LATITUDE": 39.8328, "LONGITUDE": -104.6575, "ELEVATION": 1650.2, "OBJECTID": 8}},
{"type": "Feature", "geometry": {"type": "Point", "coordinates": [-116.1594, 33.6267]}, "properties": {"STATION_ID": "USW00003104", "STATION_NAME": "DESERT RESORTS RGNL AP", "STATE": "CA", "COUNTRY": "US", "LATITUDE": 33.6267, "LONGITUDE": -116.1594, "ELEVATION": -36.0, "OBJECTID": 9}},
{"type": "Feature", "geometry": {"type": "Point", "coordinates": [-115.5786, 32.8342]}, "properties": {"STATION_ID": "USW00003144", "STATION_NAME": "IMPERIAL CO AP", "STATE": "CA", "COUNTRY": "US", "LATITUDE": 32.8342, "LONGITUDE": -115.5786, "ELEVATION": -17.7, "OBJECTID": 10}},
{"type": "Feature", "geometry": {"type": "Point", "coordinates": [-117.35, 33.3]}, "properties": {"STATION_ID": "USW00003154", "STATION_NAME": "CAMP PENDLETON MCAS", "STATE": "CA", "COUNTRY": "US", "LATITUDE": 33.3, "LONGITUDE": -117.35, "ELEVATION": 22.9, "OBJECTID": 11}},
{"type": "Feature", "geometry": {"type": "Point", "coordinates": [-118.2117, 34.7411]}, "properties": {"STATION_ID": "USW00003159", "STATION_NAME": "LANCASTER WM J FOX FLD", "STATE": "CA", "COUNTRY": "US", "LATITUDE": 34.7411, "LONGITUDE": -118.2117, "ELEVATION": 712.6, "OBJECTID": 12}},
{"type": "Feature", "geometry": {"type": "Point", "coordinates": [-116.0278, 36.6206]}, "properties": {"STATION_ID": "USW00003160", "STATION_NAME": "MERCURY DESERT ROCK AP", "STATE": "NV", "COUNTRY": "US", "LATITUDE": 36.6206, "LONGITUDE": -116.0278, "ELEVATION": 984.5, "OBJECTID": 13}},
{"type": "Feature", "geometry": {"type": "Point", "coordinates": [-111.4478, 36.9261]}, "properties": {"STATION_ID": "USW00003162", "STATION_NAME": "PAGE MUNI AP", "STATE": "AZ", "COUNTRY": "US", "LATITUDE": 36.9261, "LONGITUDE": -111.4478, "ELEVATION": 1313.7, "OBJECTID": 14}},
{"type": "Feature", "geometry": {"type": "Point", "coordinates": [-112.1547, 35.9461]}, "properties": {"STATION_ID": "USW00003195", "STATION_NAME": "GRAND CANYON NP AP", "STATE": "AZ", "COUNTRY": "US", "LATITUDE": 35.9461, "LONGITUDE": -112.1547, "ELEVATION": 2013.5, "OBJECTID": 15}},
{"type": "Feature", "geometry": {"type": "Point", "coordinates": [-81.4392, 39.345]}, "properties": {"STATION_ID": "USW00003804", "STATION_NAME": "PARKERSBURG WOOD CO AP", "STATE": "WV", "COUNTRY": "US", "LATITUDE": 39.345, "LONGITUDE": -81.4392, "ELEVATION": 253.3, "OBJECTID": 16}},
{"type": "Feature", "geometry": {"type": "Point", "coordinates": [-88.9167, 35.5931]}, "properties": {"STATION_ID": "USW00003811", "STATION_NAME": "JACKSON MCKELLAR AP", "STATE": "TN", "COUNTRY": "US", "LATITUDE": 35.5931, "LONGITUDE": -88.9167, "ELEVATION": 132.0, "OBJECTID": 17}},
{"type": "Feature", "geometry": {"type": "Point", "coordinates": [-82.5375, 35.4319]}, "properties": {"STATION_ID": "USW00003812", "STATION_NAME": "ASHEVILLE RGNL AP", "STATE": "NC", "COUNTRY": "US", "LATITUDE": 35.4319, "LONGITUDE": -82.5375, "ELEVATION": 645.3, "OBJECTID": 18}},
{"type": "Feature", "geometry": {"type": "Point", "coordinates": [-83.6528, 32.6847]}, "properties": {"STATION_ID": "USW00003813", "STATION_NAME": "MACON MIDDLE GA RGNL AP", "STATE": "GA", "COUNTRY": "US", "LATITUDE": 32.6847, "LONGITUDE": -83.6528, "ELEVATION": 104.5, "OBJECTID": 19}},
{"type": "Feature", "geometry": {"type": "Point", "coordinates": [-88.7719, 37.0683]}, "properties": {"STATION_ID": "USW00003816", "STATION_NAME": "PADUCAH", "STATE": "KY", "COUNTRY": "US", "LATITUDE": 37.0683, "LONGITUDE": -88.7719, "ELEVATION": 119.5, "OBJECTID": 20}},
{"type": "Feature", "geometry": {"type": "Point", "coordinates": [-81.9633, 33.3644]}, "properties": {"STATION_ID": "USW00003820", "STATION_NAME": "AUGUSTA BUSH FLD AP", "STATE": "GA", "COUNTRY": "US", "LATITUDE": 33.3644, "LONGITUDE": -81.9633, "ELEVATION": 40.2, "OBJECTID": 21}},
{"type": "Feature", "geometry": {"type": "Point", "coordinates": [-81.21, 32.13]}, "properties": {"STATION_ID": "USW00003822", "STATION_NAME": "SAVANNAH INTL AP", "STATE": "GA", "COUNTRY": "US", "LATITUDE": 32.13, "LONGITUDE": -81.21, "ELEVATION": 14.0, "OBJECTID": 22}},
{"type": "Feature", "geometry": {"type": "Point", "coordinates": [-85.7167, 31.2667]}, "properties": {"STATION_ID": "USW00003850", "STATION_NAME": "CAIRNS FLD FT RUCKER", "STATE": "AL", "COUNTRY": "US", "LATITUDE": 31.2667, "LONGITUDE": -85.7167, "ELEVATION": 91.1, "OBJECTID": 23}},
{"type": "Feature", "geometry": {"type": "Point", "coordinates": [-86.6833, 30.4167]}, "properties": {"STATION_ID": "USW00003852", "STATION_NAME": "VALPARAISO HURLBURT FLD", "STATE": "FL", "COUNTRY": "US", "LATITUDE": 30.4167, "LONGITUDE": -86.6833, "ELEVATION": 11.9, "OBJECTID": 24}},
{"type": "Feature", "geometry": {"type": "Point", "coordinates": [-87.3167, 30.35]}, "properties": {"STATION_ID": "USW00003855", "STATION_NAME": "PENSACOLA FOREST SHERMAN NAS", "STATE": "FL", "COUNTRY": "US", "LATITUDE": 30.35, "LONGITUDE": -87.3167, "ELEVATION": 8.5, "OBJECTID": 25}},
{"type": "Feature", "geometry": {"type": "Point", "coordinates": [-86.7861, 34.6439]}, "properties": {"STATION_ID": "USW00003856", "STATION_NAME": "HUNTSVILLE INTL AP", "STATE": "AL", "COUNTRY": "US", "LATITUDE": 34.6439, "LONGITUDE": -86.7861, "ELEVATION": 190.2, "OBJECTID": 26}},
{"type": "Feature", "geometry": {"type": "Point", "coordinates": [-82.555, 38.365]}, "properties": {"STATION_ID": "USW00003860", "STATION_NAME": "HUNTINGTON TRI STATE AP", "STATE": "WV", "COUNTRY": "US", "LATITUDE": 38.365, "LONGITUDE": -82.555, "ELEVATION": 251.2, "OBJECTID": 27}},
{"type": "Feature", "geometry": {"type": "Point", "coordinates": [-82.2203, 34.8831]}, "properties": {"STATION_ID": "USW00003870", "STATION_NAME": "GREER", "STATE": "SC", "COUNTRY": "US", "LATITUDE": 34.8831, "LONGITUDE": -82.2203, "ELEVATION": 286.5, "OBJECTID": 28}},
{"type": "Feature", "geometry": {"type": "Point", "coordinates": [-81.1231, 37.7836]}, "properties": {"STATION_ID": "USW00003872", "STATION_NAME": "BECKLEY RALEIGH CO AP", "STATE": "WV", "COUNTRY": "US", "LATITUDE": 37.7836, "LONGITUDE": -81.1231, "ELEVATION": 766.3, "OBJECTID": 29}},
{"type": "Feature", "geometry": {"type": "Point", "coordinates": [-88.8656, 39.8344]}, "properties": {"STATION_ID": "USW00003887", "STATION_NAME": "DECATUR AP", "STATE": "IL", "COUNTRY": "US", "LATITUDE": 39.8344, "LONGITUDE": -88.8656, "ELEVATION": 205.7, "OBJECTID": 30}},
{"type": "Feature", "geometry": {"type": "Point", "coordinates": [-84.5214, 33.7792]}, "properties": {"STATION_ID": "USW00003888", "STATION_NAME": "ATLANTA FULTON CO AP", "STATE": "GA", "COUNTRY": "US", "LATITUDE": 33.7792, "LONGITUDE": -84.5214, "ELEVATION": 256.0, "OBJECTID": 31}},
{"type": "Feature", "geometry": {"type": "Point", "coordinates": [-97.8333, 31.0667]}, "properties": {"STATION_ID": "USW00003902", "STATION_NAME": "ROBERT GRAY AAF", "STATE": "TX", "COUNTRY": "US", "LATITUDE": 31.0667, "LONGITUDE": -97.8333, "ELEVATION": 309.4, "OBJECTID": 32}},
{"type": "Feature", "geometry": {"type": "Point", "coordinates": [-97.65, 38.8]}, "properties": {"STATION_ID": "USW00003919", "STATION_NAME": "SALINA MUNI AP", "STATE": "KS", "COUNTRY": "US", "LATITUDE": 38.8, "LONGITUDE": -97.65, "ELEVATION": 386.8, "OBJECTID": 33}},
{"type": "Feature", "geometry": {"type": "Point", "coordinates": [-97.2667, 37.6167]}, "properties": {"STATION_ID": "USW00003923", "STATION_NAME": "WICHITA MCCONNELL AFB", "STATE": "KS", "COUNTRY": "US", "LATITUDE": 37.6167, "LONGITUDE": -97.2667, "ELEVATION": 413.9, "OBJECTID": 34}},
{"type": "Feature", "geometry": {"type": "Point", "coordinates": [-97.0189, 32.8978]}, "properties": {"STATION_ID": "USW00003927", "STATION_NAME": "DALLAS FT WORTH AP", "STATE": "TX", "COUNTRY": "US", "LATITUDE": 32.8978, "LONGITUDE": -97.0189, "ELEVATION": 170.7, "OBJECTID": 35}},
{"type": "Feature", "geometry": {"type": "Point", "coordinates": [-97.4425, 37.6544]}, "properties": {"STATION_ID": "USW00003928", "STATION_NAME": "WICHITA", "STATE": "KS", "COUNTRY": "US", "LATITUDE": 37.6544, "LONGITUDE": -97.4425, "ELEVATION": 406.9, "OBJECTID": 36}},
{"type": "Feature", "geometry": {"type": "Point", "coordinates": [-92.15, 34.9167]}, "properties": {"STATION_ID": "USW00003930", "STATION_NAME": "LITTLE ROCK AFB", "STATE": "AR", "COUNTRY": "US", "LATITUDE": 34.9167, "LONGITUDE": -92.15, "ELEVATION": 103.0, "OBJECTID": 37}},
{"type": "Feature", "geometry": {"type": "Point", "coordinates": [-93.1833, 31.05]}, "properties": {"STATION_ID": "USW00003931", "STATION_NAME": "FT POLK AAF", "STATE": "LA", "COUNTRY": "US", "LATITUDE": 31.05, "LONGITUDE": -93.1833, "ELEVATION": 100.6, "OBJECTID": 38}},
{"type": "Feature", "geometry": {"type": "Point", "coordinates": [-93.2158, 30.125]}, "properties": {"STATION_ID": "USW00003937", "STATION_NAME": "LAKE CHARLES", "STATE": "LA", "COUNTRY": "US", "LATITUDE": 30.125, "LONGITUDE": -93.2158, "ELEVATION": 4.0, "OBJECTID": 39}},
{"type": "Feature", "geometry": {"type": "Point", "coordinates": [-90.0778, 32.3206]}, "properties": {"STATION_ID": "USW00003940", "STATION_NAME": "JACKSON INTL AP", "STATE": "MS", "COUNTRY": "US", "LATITUDE": 32.3206, "LONGITUDE": -90.0778, "ELEVATION": 100.6, "OBJECTID": 40}},
{"type": "Feature", "geometry": {"type": "Point", "coordinates": [-92.2183, 38.8169]}, "properties": {"STATION_ID": "USW00003945", "STATION_NAME": "COLUMBIA RGNL AP", "STATE": "MO", "COUNTRY": "US", "LATITUDE": 38.8169, "LONGITUDE": -92.2183, "ELEVATION": 272.2, "OBJECTID": 41}},
{"type": "Feature", "geometry": {"type": "Point", "coordinates": [-94.7306, 39.2972]}, "properties": {"STATION_ID": "USW00003947", "STATION_NAME": "KANSAS CITY INTL AP", "STATE": "MO", "COUNTRY": "US", "LATITUDE": 39.2972, "LONGITUDE": -94.7306, "ELEVATION": 306.3, "OBJECTID": 42}},
{"type": "Feature", "geometry": {"type": "Point", "coordinates": [-97.6469, 35.5342]}, "properties": {"STATION_ID": "USW00003954", "STATION_NAME": "OKLAHOMA CITY POST AP", "STATE": "OK", "COUNTRY": "US", "LATITUDE": 35.5342, "LONGITUDE": -97.6469, "ELEVATION": 395.3, "OBJECTID": 43}},
{"type": "Feature", "geometry": {"type": "Point", "coordinates": [-98.5528, 37.2839]}, "properties": {"STATION_ID": "USW00003957", "STATION_NAME": "MEDICINE LODGE", "STATE": "KS", "COUNTRY": "US", "LATITUDE": 37.2839, "LONGITUDE": -98.5528, "ELEVATION": 467.9, "OBJECTID": 44}},
{"type": "Feature", "geometry": {"type": "Point", "coordinates": [-90.6558, 38.6572]}, "properties": {"STATION_ID": "USW00003966", "STATION_NAME": "ST LOUIS SPRT OF S L AP", "STATE": "MO", "COUNTRY": "US", "LATITUDE": 38.6572, "LONGITUDE": -90.6558, "ELEVATION": 140.8, "OBJECTID": 45}},
{"type": "Feature", "geometry": {"type": "Point", "coordinates": [-90.3247, 36.7725]}, "properties": {"STATION_ID": "USW00003975", "STATION_NAME": "POPLAR BLUFF MUNI AP", "STATE": "MO", "COUNTRY": "US", "LATITUDE": 36.7725, "LONGITUDE": -90.3247, "ELEVATION": 99.7, "OBJECTID": 46}},
{"type": "Feature", "geometry": {"type": "Point", "coordinates": [-78.9453, 43.1072]}, "properties": {"STATION_ID": "USW00004724", "STATION_NAME": "NIAGARA FALLS INTL AP", "STATE": "NY", "COUNTRY": "US", "LATITUDE": 43.1072, "LONGITUDE": -78.9453, "ELEVATION": 178.3, "OBJECTID": 47}},
{"type": "Feature", "geometry": {"type": "Point", "coordinates": [-75.985, 42.1997]}, "properties": {"STATION_ID": "USW00004725", "STATION_NAME": "BINGHAMTON", "STATE": "NY", "COUNTRY": "US", "LATITUDE": 42.1997, "LONGITUDE": -75.985, "ELEVATION": 489.5, "OBJECTID": 48}},
{"type": "Feature", "geometry": {"type": "Point", "coordinates": [-78.8339, 40.3161]}, "properties": {"STATION_ID": "USW00004726", "STATION_NAME": "JOHNSTOWN CAMBRIA CO AP", "STATE": "PA", "COUNTRY": "US", "LATITUDE": 40.3161, "LONGITUDE": -78.8339, "ELEVATION": 696.2, "OBJECTID": 49}},
{"type": "Feature", "geometry": {"type": "Point", "coordinates": [-70.8167, 43.0833]}, "properties": {"STATION_ID": "USW00004743", "STATION_NAME": "PORTSMOUTH PEASE AFB", "STATE": "NH", "COUNTRY": "US", "LATITUDE": 43.0833, "LONGITUDE": -70.8167, "ELEVATION": 39.0, "OBJECTID": 50}},
{"type": "Feature", "geometry": {"type": "Point", "coordinates": [-78.6403, 41.8031]}, "properties": {"STATION_ID": "USW00004751", "STATION_NAME": "BRADFORD RGNL AP", "STATE": "PA", "COUNTRY": "US", "LATITUDE": 41.8031, "LONGITUDE": -78.6403, "ELEVATION": 645.3, "OBJECTID": 51}},
{"type": "Feature", "geometry": {"type": "Point", "coordinates": [-78.8989, 41.1783]}, "properties": {"STATION_ID": "USW00004787", "STATION_NAME": "DUBOIS JEFFERSON CO AP", "STATE": "PA", "COUNTRY": "US", "LATITUDE": 41.1783, "LONGITUDE": -78.8989, "ELEVATION": 552.9, "OBJECTID": 52}},
{"type": "Feature", "geometry": {"type": "Point", "coordinates": [-81.6836, 41.5175]}, "properties": {"STATION_ID": "USW00004853", "STATION_NAME": "CLEVELAND BURKE AP", "STATE": "OH", "COUNTRY": "US", "LATITUDE": 41.5175, "LONGITUDE": -81.6836, "ELEVATION": 178.0, "OBJECTID": 53}},
{"type": "Feature", "geometry": {"type": "Point", "coordinates": [-81.325, 28.4339]}, "properties": {"STATION_ID": "USW00012815", "STATION_NAME": "ORLANDO INTL AP", "STATE": "FL", "COUNTRY": "US", "LATITUDE": 28.4339, "LONGITUDE": -81.325, "ELEVATION": 27.4, "OBJECTID": 54}},
{"type": "Feature", "geometry": {"type": "Point", "coordinates": [-80.3833, 25.4833]}, "properties": {"STATION_ID": "USW00012826", "STATION_NAME": "HOMESTEAD AFB", "STATE": "FL", "COUNTRY": "US", "LATITUDE": 25.4833, "LONGITUDE": -80.3833, "ELEVATION": 4.9, "OBJECTID": 55}},
{"type": "Feature", "geometry": {"type": "Point", "coordinates": [-83.1053, 29.6333]}, "properties": {"STATION_ID": "USW00012833", "STATION_NAME": "CROSS CITY AP", "STATE": "FL", "COUNTRY": "US", "LATITUDE": 29.6333, "LONGITUDE": -83.1053, "ELEVATION": 11.6, "OBJECTID": 56}},
{"type": "Feature", "geometry": {"type": "Point", "coordinates": [-81.8614, 26.585]}, "properties": {"STATION_ID": "USW00012835", "STATION_NAME": "FT MYERS PAGE FLD AP", "STATE": "FL", "COUNTRY": "US", "LATITUDE": 26.585, "LONGITUDE": -81.8614, "ELEVATION": 4.6, "OBJECTID": 57}},
{"type": "Feature", "geometry": {"type": "Point", "coordinates": [-81.7522, 24.555]}, "properties": {"STATION_ID": "USW00012836", "STATION_NAME": "KEY WEST INTL AP", "STATE": "FL", "COUNTRY": "US", "LATITUDE": 24.555, "LONGITUDE": -81.7522, "ELEVATION": 1.2, "OBJECTID": 58}},
{"type": "Feature", "geometry": {"type": "Point", "coordinates": [-80.6439, 28.1011]}, "properties": {"STATION_ID": "USW00012838", "STATION_NAME": "MELBOURNE INTL AP", "STATE": "FL", "COUNTRY": "US", "LATITUDE": 28.1011, "LONGITUDE": -80.6439, "ELEVATION": 8.2, "OBJECTID": 59}},
{"type": "Feature", "geometry": {"type": "Point", "coordinates": [-80.3164, 25.7906]}, "properties": {"STATION_ID": "USW00012839", "STATION_NAME": "MIAMI INTL AP", "STATE": "FL", "COUNTRY": "US", "LATITUDE": 25.7906, "LONGITUDE": -80.3164, "ELEVATION": 8.8, "OBJECTID": 60}},
{"type": "Feature", "geometry": {"type": "Point", "coordinates": [-81.3331, 28.5453]}, "properties": {"STATION_ID": "USW00012841", "STATION_NAME": "ORLANDO EXECUTIVE AP", "STATE": "FL", "COUNTRY": "US", "LATITUDE": 28.5453, "LONGITUDE": -81.3331, "ELEVATION": 32.9, "OBJECTID": 61}},
{"type": "Feature", "geometry": {"type": "Point", "coordinates": [-82.5403, 27.9619]}, "properties": {"STATION_ID": "USW00012842", "STATION_NAME": "TAMPA INTL AP", "STATE": "FL", "COUNTRY": "US", "LATITUDE": 27.9619, "LONGITUDE": -82.5403, "ELEVATION": 5.8, "OBJECTID": 62}},
{"type": "Feature", "geometry": {"type": "Point", "coordinates": [-80.0994, 26.6847]}, "properties": {"STATION_ID": "USW00012844", "STATION_NAME": "WEST PALM BEACH INTL AP", "STATE": "FL", "COUNTRY": "US", "LATITUDE": 26.6847, "LONGITUDE": -80.0994, "ELEVATION": 5.8, "OBJECTID": 63}},
{"type": "Feature", "geometry": {"type": "Point", "coordinates": [-81.6833, 24.5833]}, "properties": {"STATION_ID": "USW00012850", "STATION_NAME": "KEY WEST NAS", "STATE": "FL", "COUNTRY": "US", "LATITUDE": 24.5833, "LONGITUDE": -81.6833, "ELEVATION": 1.8, "OBJECTID": 64}},
{"type": "Feature", "geometry": {"type": "Point", "coordinates": [-81.2436, 28.7797]}, "properties": {"STATION_ID": "USW00012854", "STATION_NAME": "ORLANDO SANFORD AP", "STATE": "FL", "COUNTRY": "US", "LATITUDE": 28.7797, "LONGITUDE": -81.2436, "ELEVATION": 16.8, "OBJECTID": 65}},
{"type": "Feature", "geometry": {"type": "Point", "coordinates": [-82.6875, 27.9106]}, "properties": {"STATION_ID": "USW00012873", "STATION_NAME": "ST PETERSBURG INTL AP", "STATE": "FL", "COUNTRY": "US", "LATITUDE": 27.9106, "LONGITUDE": -82.6875, "ELEVATION": 3.4, "OBJECTID": 66}},
{"type": "Feature", "geometry": {"type": "Point", "coordinates": [-80.4331, 25.6475]}, "properties": {"STATION_ID": "USW00012888", "STATION_NAME": "MIAMI KENDALL TAMIAMI EXEC AP", "STATE": "FL", "COUNTRY": "US", "LATITUDE": 25.6475, "LONGITUDE": -80.4331, "ELEVATION": 3.0, "OBJECTID": 67}},
{"type": "Feature", "geometry": {"type": "Point", "coordinates": [-81.755, 26.5361]}, "properties": {"STATION_ID": "USW00012894", "STATION_NAME": "FT MYERS SW FL RGNL AP", "STATE": "FL", "COUNTRY": "US", "LATITUDE": 26.5361, "LONGITUDE": -81.755, "ELEVATION": 9.4, "OBJECTID": 68}},
{"type": "Feature", "geometry": {"type": "Point", "coordinates": [-98.5833, 29.3833]}, "properties": {"STATION_ID": "USW00012909", "STATION_NAME": "SAN ANTONIO KELLY AFB", "STATE": "TX", "COUNTRY": "US", "LATITUDE": 29.3833, "LONGITUDE": -98.5833, "ELEVATION": 207.9, "OBJECTID": 69}},
{"type": "Feature", "geometry": {"type": "Point", "coordinates": [-96.9303, 28.8614]}, "properties": {"STATION_ID": "USW00012912", "STATION_NAME": "VICTORIA RGNL AP", "STATE": "TX", "COUNTRY": "US", "LATITUDE": 28.8614, "LONGITUDE": -96.9303, "ELEVATION": 35.1, "OBJECTID": 70}},
{"type": "Feature", "geometry": {"type": "Point", "coordinates": [-90.2511, 29.9933]}, "properties": {"STATION_ID": "USW00012916", "STATION_NAME": "NEW ORLEANS INTL AP", "STATE": "LA", "COUNTRY": "US", "LATITUDE": 29.9933, "LONGITUDE": -90.2511, "ELEVATION": 1.2, "OBJECTID": 71}},
{"type": "Feature", "geometry": {"type": "Point", "coordinates": [-94.0206, 29.9506]}, "properties": {"STATION_ID": "USW00012917", "STATION_NAME": "PORT ARTHUR SE TX AP", "STATE": "TX", "COUNTRY": "US", "LATITUDE": 29.9506, "LONGITUDE": -94.0206, "ELEVATION": 4.9, "OBJECTID": 72}},
{"type": "Feature", "geometry": {"type": "Point", "coordinates": [-97.4186, 25.9156]}, "properties": {"STATION_ID": "USW00012919", "STATION_NAME": "BROWNSVILLE", "STATE": "TX", "COUNTRY": "US", "LATITUDE": 25.9156, "LONGITUDE": -97.4186, "ELEVATION": 7.0, "OBJECTID": 73}},
{"type": "Feature", "geometry": {"type": "Point", "coordinates": [-98.4839, 29.5442]}, "properties": {"STATION_ID": "USW00012921", "STATION_NAME": "SAN ANTONIO INTL AP", "STATE": "TX", "COUNTRY": "US", "LATITUDE": 29.5442, "LONGITUDE": -98.4839, "ELEVATION": 240.5, "OBJECTID": 74}},
{"type": "Feature", "geometry": {"type": "Point", "coordinates": [-97.5108, 27.7839]}, "properties": {"STATION_ID": "USW00012924", "STATION_NAME": "CORPUS CHRISTI", "STATE": "TX", "COUNTRY": "US", "LATITUDE": 27.7839, "LONGITUDE": -97.5108, "ELEVATION": 13.7, "OBJECTID": 75}},
{"type": "Feature", "geometry": {"type": "Point", "coordinates": [-97.2833, 27.6833]}, "properties": {"STATION_ID": "USW00012926", "STATION_NAME": "CORPUS CHRISTI NAS", "STATE": "TX", "COUNTRY": "US", "LATITUDE": 27.6833, "LONGITUDE": -97.2833, "ELEVATION": 5.5, "OBJECTID": 76}},
{"type": "Feature", "geometry": {"type": "Point", "coordinates": [-98.0247, 27.7411]}, "properties": {"STATION_ID": "USW00012932", "STATION_NAME": "ALICE INTL AP", "STATE": "TX", "COUNTRY": "US", "LATITUDE": 27.7411, "LONGITUDE": -98.0247, "ELEVATION": 52.7, "OBJECTID": 77}},
{"type": "Feature", "geometry": {"type": "Point", "coordinates": [-96.2536, 28.7247]}, "properties": {"STATION_ID": "USW00012935", "STATION_NAME": "PALACIOS MUNI AP", "STATE": "TX", "COUNTRY": "US", "LATITUDE": 28.7247, "LONGITUDE": -96.2536, "ELEVATION": 3.7, "OBJECTID": 78}},
{"type": "Feature", "geometry": {"type": "Point", "coordinates": [-98.2539, 26.1839]}, "properties": {"STATION_ID": "USW00012959", "STATION_NAME": "MCALLEN MILLER INTL AP", "STATE": "TX", "COUNTRY": "US", "LATITUDE": 26.1839, "LONGITUDE": -98.2539, "ELEVATION": 30.5, "OBJECTID": 79}},
{"type": "Feature", "geometry": {"type": "Point", "coordinates": [-95.36, 29.98]}, "properties": {"STATION_ID": "USW00012960", "STATION_NAME": "HOUSTON INTERCONT AP", "STATE": "TX", "COUNTRY": "US", "LATITUDE": 29.98, "LONGITUDE": -95.36, "ELEVATION": 29.0, "OBJECTID": 80}},
{"type": "Feature", "geometry": {"type": "Point", "coordinates": [-99.1742, 29.36]}, "properties": {"STATION_ID": "USW00012962", "STATION_NAME": "HONDO MUNI AP", "STATE": "TX", "COUNTRY": "US", "LATITUDE": 29.36, "LONGITUDE": -99.1742, "ELEVATION": 280.4, "OBJECTID": 81}},
{"type": "Feature", "geometry": {"type": "Point", "coordinates": [-76.35, 37.0833]}, "properties": {"STATION_ID": "USW00013702", "STATION_NAME": "LANGLEY AFB", "STATE": "VA", "COUNTRY": "US", "LATITUDE": 37.0833, "LONGITUDE": -76.35, "ELEVATION": 3.0, "OBJECTID": 82}},
{"type": "Feature", "geometry": {"type": "Point", "coordinates": [-76.8667, 38.8167]}, "properties": {"STATION_ID": "USW00013705", "STATION_NAME": "CAMP SPRINGS ANDREWS AFB", "STATE": "MD", "COUNTRY": "US", "LATITUDE": 38.8167, "LONGITUDE": -76.8667, "ELEVATION": 86.0, "OBJECTID": 83}},
{"type": "Feature", "geometry": {"type": "Point", "coordinates": [-75.4667, 39.1333]}, "properties": {"STATION_ID": "USW00013707", "STATION_NAME": "DOVER AFB", "STATE": "DE", "COUNTRY": "US", "LATITUDE": 39.1333, "LONGITUDE": -75.4667, "ELEVATION": 7.0, "OBJECTID": 84}},
{"type": "Feature", "geometry": {"type": "Point", "coordinates": [-77.9647, 35.3444]}, "properties": {"STATION_ID": "USW00013713", "STATION_NAME": "GOLDSBORO 4 SE", "STATE": "NC", "COUNTRY": "US", "LATITUDE": 35.3444, "LONGITUDE": -77.9647, "ELEVATION": 33.2, "OBJECTID": 85}},
{"type": "Feature", "geometry": {"type": "Point", "coordinates": [-79.0089, 35.1739]}, "properties": {"STATION_ID": "USW00013714", "STATION_NAME": "POPE AFB", "STATE": "NC", "COUNTRY": "US", "LATITUDE": 35.1739, "LONGITUDE": -79.0089, "ELEVATION": 66.4, "OBJECTID": 86}},
{"type": "Feature", "geometry": {"type": "Point", "coordinates": [-76.4167, 38.3]}, "properties": {"STATION_ID": "USW00013721", "STATION_NAME": "PATUXENT RIVER NAS", "STATE": "MD", "COUNTRY": "US", "LATITUDE": 38.3, "LONGITUDE": -76.4167, "ELEVATION": 11.9, "OBJECTID": 87}},
{"type": "Feature", "geometry": {"type": "Point", "coordinates": [-78.7819, 35.8922]}, "properties": {"STATION_ID": "USW00013722", "STATION_NAME": "RALEIGH DURHAM INTL AP", "STATE": "NC", "COUNTRY": "US", "LATITUDE": 35.8922, "LONGITUDE": -78.7819, "ELEVATION": 126.8, "OBJECTID": 88}},
{"type": "Feature", "geometry": {"type": "Point", "coordinates": [-79.9433, 36.0969]}, "properties": {"STATION_ID": "USW00013723", "STATION_NAME": "PIEDMONT TRIAD INTL AP", "STATE": "NC", "COUNTRY": "US", "LATITUDE": 36.0969, "LONGITUDE": -79.9433, "ELEVATION": 271.3, "OBJECTID": 89}},
{"type": "Feature", "geometry": {"type": "Point", "coordinates": [-79.8528, 38.8853]}, "properties": {"STATION_ID": "USW00013729", "STATION_NAME": "ELKINS RANDOLPH CO AP", "STATE": "WV", "COUNTRY": "US", "LATITUDE": 38.8853, "LONGITUDE": -79.8528, "ELEVATION": 603.2, "OBJECTID": 90}},
{"type": "Feature", "geometry": {"type": "Point", "coordinates": [-79.2067, 37.3208]}, "properties": {"STATION_ID": "USW00013733", "STATION_NAME": "LYNCHBURG RGNL AP", "STATE": "VA", "COUNTRY": "US", "LATITUDE": 37.3208, "LONGITUDE": -79.2067, "ELEVATION": 286.5, "OBJECTID": 91}},
{"type": "Feature", "geometry": {"type": "Point", "coordinates": [-77.9844, 39.4019]}, "properties": {"STATION_ID": "USW00013734", "STATION_NAME": "MARTINSBURG E WV RGNL AP", "STATE": "WV", "COUNTRY": "US", "LATITUDE": 39.4019, "LONGITUDE": -77.9844, "ELEVATION": 162.8, "OBJECTID": 92}},
{"type": "Feature", "geometry": {"type": "Point", "coordinates": [-75.0667, 39.3667]}, "properties": {"STATION_ID": "USW00013735", "STATION_NAME": "MILLVILLE MUNI AP", "STATE": "NJ", "COUNTRY": "US", "LATITUDE": 39.3667, "LONGITUDE": -75.0667, "ELEVATION": 21.3, "OBJECTID": 93}},
{"type": "Feature", "geometry": {"type": "Point", "coordinates": [-79.9164, 39.6428]}, "properties": {"STATION_ID": "USW00013736", "STATION_NAME": "MORGANTOWN HART FLD", "STATE": "WV", "COUNTRY": "US", "LATITUDE": 39.6428, "LONGITUDE": -79.9164, "ELEVATION": 378.0, "OBJECTID": 94}},
{"type": "Feature", "geometry": {"type": "Point", "coordinates": [-76.1922, 36.9033]}, "properties": {"STATION_ID": "USW00013737", "STATION_NAME": "NORFOLK INTL AP", "STATE": "VA", "COUNTRY": "US", "LATITUDE": 36.9033, "LONGITUDE": -76.1922, "ELEVATION": 9.1, "OBJECTID": 95}},
{"type": "Feature", "geometry": {"type": "Point", "coordinates": [-75.2311, 39.8683]}, "properties": {"STATION_ID": "USW00013739", "STATION_NAME": "PHILADELPHIA INTL AP", "STATE": "PA", "COUNTRY": "US", "LATITUDE": 39.8683, "LONGITUDE": -75.2311, "ELEVATION": 3.0, "OBJECTID": 96}},
{"type": "Feature", "geometry": {"type": "Point", "coordinates": [-77.3203, 37.505]}, "properties": {"STATION_ID": "USW00013740", "STATION_NAME": "RICHMOND INTL AP", "STATE": "VA", "COUNTRY": "US", "LATITUDE": 37.505, "LONGITUDE": -77.3203, "ELEVATION": 50.0, "OBJECTID": 97}},
{"type": "Feature", "geometry": {"type": "Point", "coordinates": [-79.9742, 37.3169]}, "properties": {"STATION_ID": "USW00013741", "STATION_NAME": "ROANOKE RGNL AP", "STATE": "VA", "COUNTRY": "US", "LATITUDE": 37.3169, "LONGITUDE": -79.9742, "ELEVATION": 358.1, "OBJECTID": 98}},
{"type": "Feature", "geometry": {"type": "Point", "coordinates": [-77.0342, 38.8483]}, "properties": {"STATION_ID": "USW00013743", "STATION_NAME": "WASHINGTON REAGAN AP", "STATE": "VA", "COUNTRY": "US", "LATITUDE": 38.8483, "LONGITUDE": -77.0342, "ELEVATION": 3.0, "OBJECTID": 99}},
{"type": "Feature", "geometry": {"type": "Point", "coordinates": [-79.7239, 34.1853]}, "properties": {"STATION_ID": "USW00013744", "STATION_NAME": "FLORENCE RGNL AP", "STATE": "SC", "COUNTRY": "US", "LATITUDE": 34.1853, "LONGITUDE": -79.7239, "ELEVATION": 44.5, "OBJECTID": 100}},
{"type": "Feature", "geometry": {"type": "Point", "coordinates": [-76.2833, 36.95]}, "properties": {"STATION_ID": "USW00013750", "STATION_NAME": "NORFOLK NAS", "STATE": "VA", "COUNTRY": "US", "LATITUDE": 36.95, "LONGITUDE": -76.2833, "ELEVATION": 5.2, "OBJECTID": 101}},
{"type": "Feature", "geometry": {"type": "Point", "coordinates": [-76.8833, 34.9]}, "properties": {"STATION_ID": "USW00013754", "STATION_NAME": "CHERRY POINT MCAS", "STATE": "NC", "COUNTRY": "US", "LATITUDE": 34.9, "LONGITUDE": -76.8833, "ELEVATION": 8.8, "OBJECTID": 102}},
{"type": "Feature", "geometry": {"type": "Point", "coordinates": [-76.0333, 36.8167]}, "properties": {"STATION_ID": "USW00013769", "STATION_NAME": "OCEANA NAS", "STATE": "VA", "COUNTRY": "US", "LATITUDE": 36.8167, "LONGITUDE": -76.0333, "ELEVATION": 7.0, "OBJECTID": 103}},
{"type": "Feature", "geometry": {"type": "Point", "coordinates": [-77.3, 38.5]}, "properties": {"STATION_ID": "USW00013773", "STATION_NAME": "QUANTICO MCAS", "STATE": "VA", "COUNTRY": "US", "LATITUDE": 38.5, "LONGITUDE": -77.3, "ELEVATION": 3.0, "OBJECTID": 104}},
{"type": "Feature", "geometry": {"type": "Point", "coordinates": [-89.8467, 38.52]}, "properties": {"STATION_ID": "USW00013802", "STATION_NAME": "BELLEVILLE SIU RSCH", "STATE": "IL", "COUNTRY": "US", "LATITUDE": 38.52, "LONGITUDE": -89.8467, "ELEVATION": 137.2, "OBJECTID": 105}},
{"type": "Feature", "geometry": {"type": "Point", "coordinates": [-87.4833, 36.6667]}, "properties": {"STATION_ID": "USW00013806", "STATION_NAME": "FT CAMPBELL AAF", "STATE": "KY", "COUNTRY": "US", "LATITUDE": 36.6667, "LONGITUDE": -87.4833, "ELEVATION": 173.1, "OBJECTID": 106}},
{"type": "Feature", "geometry": {"type": "Point", "coordinates": [-85.9667, 37.9]}, "properties": {"STATION_ID": "USW00013807", "STATION_NAME": "GODMAN AFBU FT KNOX", "STATE": "KY", "COUNTRY": "US", "LATITUDE": 37.9, "LONGITUDE": -85.9667, "ELEVATION": 224.0, "OBJECTID": 107}},
{"type": "Feature", "geometry": {"type": "Point", "coordinates": [-85.6636, 38.2281]}, "properties": {"STATION_ID": "USW00013810", "STATION_NAME": "LOUISVILLE BOWMAN FLD", "STATE": "KY", "COUNTRY": "US", "LATITUDE": 38.2281, "LONGITUDE": -85.6636, "ELEVATION": 164.6, "OBJECTID": 108}},
{"type": "Feature", "geometry": {"type": "Point", "coordinates": [-81.1333, 32.0167]}, "properties": {"STATION_ID": "USW00013824", "STATION_NAME": "SAVANNAH HUNTER FLD", "STATE": "GA", "COUNTRY": "US", "LATITUDE": 32.0167, "LONGITUDE": -81.1333, "ELEVATION": 17.1, "OBJECTID": 109}},
{"type": "Feature", "geometry": {"type": "Point", "coordinates": [-85.0, 32.35]}, "properties": {"STATION_ID": "USW00013829", "STATION_NAME": "FT BENNING LAWSON FLD", "STATE": "GA", "COUNTRY": "US", "LATITUDE": 32.35, "LONGITUDE": -85.0, "ELEVATION": 88.1, "OBJECTID": 110}},
{"type": "Feature", "geometry": {"type": "Point", "coordinates": [-84.05, 39.8333]}, "properties": {"STATION_ID": "USW00013840", "STATION_NAME": "WRIGHT PATTERSON AFB", "STATE": "OH", "COUNTRY": "US", "LATITUDE": 39.8333, "LONGITUDE": -84.05, "ELEVATION": 250.9, "OBJECTID": 111}},
{"type": "Feature", "geometry": {"type": "Point", "coordinates": [-85.5833, 30.0667]}, "properties": {"STATION_ID": "USW00013846", "STATION_NAME": "TYNDALL AFB", "STATE": "FL", "COUNTRY": "US", "LATITUDE": 30.0667, "LONGITUDE": -85.5833, "ELEVATION": 7.0, "OBJECTID": 112}},
{"type": "Feature", "geometry": {"type": "Point", "coordinates": [-80.4667, 33.9667]}, "properties": {"STATION_ID": "USW00013849", "STATION_NAME": "SUMTER SHAW AFB", "STATE": "SC", "COUNTRY": "US", "LATITUDE": 33.9667, "LONGITUDE": -80.4667, "ELEVATION": 74.1, "OBJECTID": 113}},
{"type": "Feature", "geometry": {"type": "Point", "coordinates": [-83.2, 30.9667]}, "properties": {"STATION_ID": "USW00013857", "STATION_NAME": "VALDOSTA MOODY AFB", "STATE": "GA", "COUNTRY": "US", "LATITUDE": 30.9667, "LONGITUDE": -83.2, "ELEVATION": 73.2, "OBJECTID": 114}},
{"type": "Feature", "geometry": {"type": "Point", "coordinates": [-86.5167, 30.4833]}, "properties": {"STATION_ID": "USW00013858", "STATION_NAME": "VALPARAISO EGLIN AFB", "STATE": "FL", "COUNTRY": "US", "LATITUDE": 30.4833, "LONGITUDE": -86.5167, "ELEVATION": 18.0, "OBJECTID": 115}},
{"type": "Feature", "geometry": {"type": "Point", "coordinates": [-83.6, 32.6333]}, "properties": {"STATION_ID": "USW00013860", "STATION_NAME": "WARNER ROBINS AFB", "STATE": "GA", "COUNTRY": "US", "LATITUDE": 32.6333, "LONGITUDE": -83.6, "ELEVATION": 92.0, "OBJECTID": 116}},
{"type": "Feature", "geometry": {"type": "Point", "coordinates": [-88.7442, 32.3347]}, "properties": {"STATION_ID": "USW00013865", "STATION_NAME": "MERIDIAN KEY FLD", "STATE": "MS", "COUNTRY": "US", "LATITUDE": 32.3347, "LONGITUDE": -88.7442, "ELEVATION": 89.6, "OBJECTID": 117}},
{"type": "Feature", "geometry": {"type": "Point", "coordinates": [-81.59, 38.3794]}, "properties": {"STATION_ID": "USW00013866", "STATION_NAME": "CHARLESTON YEAGER AP", "STATE": "WV", "COUNTRY": "US", "LATITUDE": 38.3794, "LONGITUDE": -81.59, "ELEVATION": 277.4, "OBJECTID": 118}},
{"type": "Feature", "geometry": {"type": "Point", "coordinates": [-84.1944, 31.5356]}, "properties": {"STATION_ID": "USW00013869", "STATION_NAME": "ALBANY SW GA RGNL AP", "STATE": "GA", "COUNTRY": "US", "LATITUDE": 31.5356, "LONGITUDE": -84.1944, "ELEVATION": 57.9, "OBJECTID": 119}},
{"type": "Feature", "geometry": {"type": "Point", "coordinates": [-85.8556, 33.5872]}, "properties": {"STATION_ID": "USW00013871", "STATION_NAME": "ANNISTON METRO AP", "STATE": "AL", "COUNTRY": "US", "LATITUDE": 33.5872, "LONGITUDE": -85.8556, "ELEVATION": 181.1, "OBJECTID": 120}},
{"type": "Feature", "geometry": {"type": "Point", "coordinates": [-83.3275, 33.9481]}, "properties": {"STATION_ID": "USW00013873", "STATION_NAME": "ATHENS BEN EPPS AP", "STATE": "GA", "COUNTRY": "US", "LATITUDE": 33.9481, "LONGITUDE": -83.3275, "ELEVATION": 239.3, "OBJECTID": 121}},
{"type": "Feature", "geometry": {"type": "Point", "coordinates": [-84.4417, 33.63]}, "properties": {"STATION_ID": "USW00013874", "STATION_NAME": "ATLANTA HARTSFIELD INTL AP", "STATE": "GA", "COUNTRY": "US", "LATITUDE": 33.63, "LONGITUDE": -84.4417, "ELEVATION": 307.8, "OBJECTID": 122}},
{"type": "Feature", "geometry": {"type": "Point", "coordinates": [-86.745, 33.5656]}, "properties": {"STATION_ID": "USW00013876", "STATION_NAME": "BIRMINGHAM AP", "STATE": "AL", "COUNTRY": "US", "LATITUDE": 33.5656, "LONGITUDE": -86.745, "ELEVATION": 187.5, "OBJECTID": 123}},
{"type": "Feature", "geometry": {"type": "Point", "coordinates": [-81.3908, 31.1522]}, "properties": {"STATION_ID": "USW00013878", "STATION_NAME": "BRUNSWICK MALCOLM MCKINNON AP", "STATE": "GA", "COUNTRY": "US", "LATITUDE": 31.1522, "LONGITUDE": -81.3908, "ELEVATION": 4.9, "OBJECTID": 124}},
{"type": "Feature", "geometry": {"type": "Point", "coordinates": [-80.0403, 32.8986]}, "properties": {"STATION_ID": "USW00013880", "STATION_NAME": "CHARLESTON INTL AP", "STATE": "SC", "COUNTRY": "US", "LATITUDE": 32.8986, "LONGITUDE": -80.0403, "ELEVATION": 12.2, "OBJECTID": 125}},
{"type": "Feature", "geometry": {"type": "Point", "coordinates": [-80.9553, 35.2236]}, "properties": {"STATION_ID": "USW00013881", "STATION_NAME": "CHARLOTTE DOUGLAS AP", "STATE": "NC", "COUNTRY": "US", "LATITUDE": 35.2236, "LONGITUDE": -80.9553, "ELEVATION": 221.9, "OBJECTID": 126}},
{"type": "Feature", "geometry": {"type": "Point", "coordinates": [-85.2014, 35.0311]}, "properties": {"STATION_ID": "USW00013882", "STATION_NAME": "CHATTANOOGA LOVELL AP", "STATE": "TN", "COUNTRY": "US", "LATITUDE": 35.0311, "LONGITUDE": -85.2014, "ELEVATION": 204.5, "OBJECTID": 127}},
{"type": "Feature", "geometry": {"type": "Point", "coordinates": [-81.1186, 33.9486]}, "properties": {"STATION_ID": "USW00013883", "STATION_NAME": "COLUMBIA", "STATE": "SC", "COUNTRY": "US", "LATITUDE": 33.9486, "LONGITUDE": -81.1186, "ELEVATION": 70.4, "OBJECTID": 128}},
{"type": "Feature", "geometry": {"type": "Point", "coordinates": [-81.7019, 30.4844]}, "properties": {"STATION_ID": "USW00013889", "STATION_NAME": "JACKSONVILLE", "STATE": "FL", "COUNTRY": "US", "LATITUDE": 30.4844, "LONGITUDE": -81.7019, "ELEVATION": 10.1, "OBJECTID": 129}},
{"type": "Feature", "geometry": {"type": "Point", "coordinates": [-83.9858, 35.8181]}, "properties": {"STATION_ID": "USW00013891", "STATION_NAME": "KNOXVILLE MCGHEE TYSON AP", "STATE": "TN", "COUNTRY": "US", "LATITUDE": 35.8181, "LONGITUDE": -83.9858, "ELEVATION": 293.2, "OBJECTID": 130}},
{"type": "Feature", "geometry": {"type": "Point", "coordinates": [-89.9864, 35.0564]}, "properties": {"STATION_ID": "USW00013893", "STATION_NAME": "MEMPHIS INTL AP", "STATE": "TN", "COUNTRY": "US", "LATITUDE": 35.0564, "LONGITUDE": -89.9864, "ELEVATION": 77.4, "OBJECTID": 131}},
{"type": "Feature", "geometry": {"type": "Point", "coordinates": [-88.2397, 30.6794]}, "properties": {"STATION_ID": "USW00013894", "STATION_NAME": "MOBILE", "STATE": "AL", "COUNTRY": "US", "LATITUDE": 30.6794, "LONGITUDE": -88.2397, "ELEVATION": 63.4, "OBJECTID": 132}},
{"type": "Feature", "geometry": {"type": "Point", "coordinates": [-86.4075, 32.2997]}, "properties": {"STATION_ID": "USW00013895", "STATION_NAME": "MONTGOMERY AP", "STATE": "AL", "COUNTRY": "US", "LATITUDE": 32.2997, "LONGITUDE": -86.4075, "ELEVATION": 61.6, "OBJECTID": 133}},
{"type": "Feature", "geometry": {"type": "Point", "coordinates": [-87.5997, 34.7442]}, "properties": {"STATION_ID": "USW00013896", "STATION_NAME": "MUSCLE SHOALS RGNL AP", "STATE": "AL", "COUNTRY": "US", "LATITUDE": 34.7442, "LONGITUDE": -87.5997, "ELEVATION": 164.6, "OBJECTID": 134}},
{"type": "Feature", "geometry": {"type": "Point", "coordinates": [-86.6892, 36.1189]}, "properties": {"STATION_ID": "USW00013897", "STATION_NAME": "NASHVILLE INTL AP", "STATE": "TN", "COUNTRY": "US", "LATITUDE": 36.1189, "LONGITUDE": -86.6892, "ELEVATION": 182.9, "OBJECTID": 135}},
{"type": "Feature", "geometry": {"type": "Point", "coordinates": [-87.1869, 30.4781]}, "properties": {"STATION_ID": "USW00013899", "STATION_NAME": "PENSACOLA RGNL AP", "STATE": "FL", "COUNTRY": "US", "LATITUDE": 30.4781, "LONGITUDE": -87.1869, "ELEVATION": 34.1, "OBJECTID": 136}},
{"type": "Feature", "geometry": {"type": "Point", "coordinates": [-97.3833, 35.4167]}, "properties": {"STATION_ID": "USW00013919", "STATION_NAME": "OKLAHOMA CITY TINKER AFB", "STATE": "OK", "COUNTRY": "US", "LATITUDE": 35.4167, "LONGITUDE": -97.3833, "ELEVATION": 384.0, "OBJECTID": 137}},
{"type": "Feature", "geometry": {"type": "Point", "coordinates": [-95.6639, 38.9503]}, "properties": {"STATION_ID": "USW00013920", "STATION_NAME": "TOPEKA FORBES FLD", "STATE": "KS", "COUNTRY": "US", "LATITUDE": 38.9503, "LONGITUDE": -95.6639, "ELEVATION": 325.2, "OBJECTID": 138}},
{"type": "Feature", "geometry": {"type": "Point", "coordinates": [-93.55, 38.7167]}, "properties": {"STATION_ID": "USW00013930", "STATION_NAME": "WHITEMAN AFB", "STATE": "MO", "COUNTRY": "US", "LATITUDE": 38.7167, "LONGITUDE": -93.55, "ELEVATION": 255.1, "OBJECTID": 139}},
{"type": "Feature", "geometry": {"type": "Point", "coordinates": [-92.0406, 32.5156]}, "properties": {"STATION_ID": "USW00013942", "STATION_NAME": "MONROE RGNL AP", "STATE": "LA", "COUNTRY": "US", "LATITUDE": 32.5156, "LONGITUDE": -92.0406, "ELEVATION": 24.1, "OBJECTID": 140}},
{"type": "Feature", "geometry": {"type": "Point", "coordinates": [-93.8411, 32.4506]}, "properties": {"STATION_ID": "USW00013957", "STATION_NAME": "SHREVEPORT", "STATE": "LA", "COUNTRY": "US", "LATITUDE": 32.4506, "LONGITUDE": -93.8411, "ELEVATION": 83.2, "OBJECTID": 141}},
{"type": "Feature", "geometry": {"type": "Point", "coordinates": [-97.2283, 31.6189]}, "properties": {"STATION_ID": "USW00013959", "STATION_NAME": "WACO RGNL AP", "STATE": "TX", "COUNTRY": "US", "LATITUDE": 31.6189, "LONGITUDE": -97.2283, "ELEVATION": 152.4, "OBJECTID": 142}},
{"type": "Feature", "geometry": {"type": "Point", "coordinates": [-99.6822, 32.4106]}, "properties": {"STATION_ID": "USW00013962", "STATION_NAME": "ABILENE RGNL AP", "STATE": "TX", "COUNTRY": "US", "LATITUDE": 32.4106, "LONGITUDE": -99.6822, "ELEVATION": 545.6, "OBJECTID": 143}},
{"type": "Feature", "geometry": {"type": "Point", "coordinates": [-92.2389, 34.7272]}, "properties": {"STATION_ID": "USW00013963", "STATION_NAME": "LITTLE ROCK AP ADAMS FLD", "STATE": "AR", "COUNTRY": "US", "LATITUDE": 34.7272, "LONGITUDE": -92.2389, "ELEVATION": 78.6, "OBJECTID": 144}},
{"type": "Feature", "geometry": {"type": "Point", "coordinates": [-94.3625, 35.3331]}, "properties": {"STATION_ID": "USW00013964", "STATION_NAME": "FT SMITH RGNL AP", "STATE": "AR", "COUNTRY": "US", "LATITUDE": 35.3331, "LONGITUDE": -94.3625, "ELEVATION": 136.9, "OBJECTID": 145}},
{"type": "Feature", "geometry": {"type": "Point", "coordinates": [-98.4928, 33.9786]}, "properties": {"STATION_ID": "USW00013966", "STATION_NAME": "WICHITA FALLS MUNI AP", "STATE": "TX", "COUNTRY": "US", "LATITUDE": 33.9786, "LONGITUDE": -98.4928, "ELEVATION": 310.0, "OBJECTID": 146}},
{"type": "Feature", "geometry": {"type": "Point", "coordinates": [-97.6006, 35.3889]}, "properties": {"STATION_ID": "USW00013967", "STATION_NAME": "OKLAHOMA CITY WILL ROGERS AP", "STATE": "OK", "COUNTRY": "US", "LATITUDE": 35.3889, "LONGITUDE": -97.6006, "ELEVATION": 391.7, "OBJECTID": 147}},
{"type": "Feature", "geometry": {"type": "Point", "coordinates": [-95.8872, 36.1994]}, "properties": {"STATION_ID": "USW00013968", "STATION_NAME": "TULSA INTL AP", "STATE": "OK", "COUNTRY": "US", "LATITUDE": 36.1994, "LONGITUDE": -95.8872, "ELEVATION": 198.1, "OBJECTID": 148}},
{"type": "Feature", "geometry": {"type": "Point", "coordinates": [-99.7664, 30.5108]}, "properties": {"STATION_ID": "USW00013973", "STATION_NAME": "JUNCTION KIMBLE CO AP", "STATE": "TX", "COUNTRY": "US", "LATITUDE": 30.5108, "LONGITUDE": -99.7664, "ELEVATION": 533.1, "OBJECTID": 149}},
{"type": "Feature", "geometry": {"type": "Point", "coordinates": [-91.9875, 30.205]}, "properties": {"STATION_ID": "USW00013976", "STATION_NAME": "LAFAYETTE RGNL AP", "STATE": "LA", "COUNTRY": "US", "LATITUDE": 30.205, "LONGITUDE": -91.9875, "ELEVATION": 11.6, "OBJECTID": 150}},
{"type": "Feature", "geometry": {"type": "Point", "coordinates": [-94.0075, 33.4536]}, "properties": {"STATION_ID": "USW00013977", "STATION_NAME": "TEXARKANA WEBB FLD", "STATE": "AR", "COUNTRY": "US", "LATITUDE": 33.4536, "LONGITUDE": -94.0075, "ELEVATION": 110.0, "OBJECTID": 151}},
{"type": "Feature", "geometry": {"type": "Point", "coordinates": [-97.6508, 39.5514]}, "properties": {"STATION_ID": "USW00013984", "STATION_NAME": "CONCORDIA MUNI AP", "STATE": "KS", "COUNTRY": "US", "LATITUDE": 39.5514, "LONGITUDE": -97.6508, "ELEVATION": 447.8, "OBJECTID": 152}},
{"type": "Feature", "geometry": {"type": "Point", "coordinates": [-99.9683, 37.7608]}, "properties": {"STATION_ID": "USW00013985", "STATION_NAME": "DODGE CITY", "STATE": "KS", "COUNTRY": "US", "LATITUDE": 37.7608, "LONGITUDE": -99.9683, "ELEVATION": 789.4, "OBJECTID": 153}},
{"type": "Feature", "geometry": {"type": "Point", "coordinates": [-94.5022, 37.1467]}, "properties": {"STATION_ID": "USW00013987", "STATION_NAME": "JOPLIN REGIONAL  AIRPORT", "STATE": "MO", "COUNTRY": "US", "LATITUDE": 37.1467, "LONGITUDE": -94.5022, "ELEVATION": 298.7, "OBJECTID": 154}},
{"type": "Feature", "geometry": {"type": "Point", "coordinates": [-94.5969, 39.1208]}, "properties": {"STATION_ID": "USW00013988", "STATION_NAME": "KANSAS CITY DOWNTOWN AP", "STATE": "MO", "COUNTRY": "US", "LATITUDE": 39.1208, "LONGITUDE": -94.5969, "ELEVATION": 226.2, "OBJECTID": 155}},
{"type": "Feature", "geometry": {"type": "Point", "coordinates": [-90.3736, 38.7525]}, "properties": {"STATION_ID": "USW00013994", "STATION_NAME": "ST LOUIS LAMBERT INTL AP", "STATE": "MO", "COUNTRY": "US", "LATITUDE": 38.7525, "LONGITUDE": -90.3736, "ELEVATION": 161.8, "OBJECTID": 156}},
{"type": "Feature", "geometry": {"type": "Point", "coordinates": [-93.4003, 37.2353]}, "properties": {"STATION_ID": "USW00013995", "STATION_NAME": "SPRINGFIELD", "STATE": "MO", "COUNTRY": "US", "LATITUDE": 37.2353, "LONGITUDE": -93.4003, "ELEVATION": 389.5, "OBJECTID": 157}},
{"type": "Feature", "geometry": {"type": "Point", "coordinates": [-95.6261, 39.0725]}, "properties": {"STATION_ID": "USW00013996", "STATION_NAME": "TOPEKA MUNI AP", "STATE": "KS", "COUNTRY": "US", "LATITUDE": 39.0725, "LONGITUDE": -95.6261, "ELEVATION": 267.0, "OBJECTID": 158}},
{"type": "Feature", "geometry": {"type": "Point", "coordinates": [-69.7972, 44.3206]}, "properties": {"STATION_ID": "USW00014605", "STATION_NAME": "AUGUSTA STATE AP", "STATE": "ME", "COUNTRY": "US", "LATITUDE": 44.3206, "LONGITUDE": -69.7972, "ELEVATION": 106.7, "OBJECTID": 159}},
{"type": "Feature", "geometry": {"type": "Point", "coordinates": [-68.0172, 46.8706]}, "properties": {"STATION_ID": "USW00014607", "STATION_NAME": "CARIBOU MUNI AP", "STATE": "ME", "COUNTRY": "US", "LATITUDE": 46.8706, "LONGITUDE": -68.0172, "ELEVATION": 190.2, "OBJECTID": 160}},
{"type": "Feature", "geometry": {"type": "Point", "coordinates": [-67.7928, 46.1236]}, "properties": {"STATION_ID": "USW00014609", "STATION_NAME": "HOULTON INTL AP", "STATE": "ME", "COUNTRY": "US", "LATITUDE": 46.1236, "LONGITUDE": -67.7928, "ELEVATION": 145.1, "OBJECTID": 161}},
{"type": "Feature", "geometry": {"type": "Point", "coordinates": [-74.6, 40.0167]}, "properties": {"STATION_ID": "USW00014706", "STATION_NAME": "MCGUIRE AFB", "STATE": "NJ", "COUNTRY": "US", "LATITUDE": 40.0167, "LONGITUDE": -74.6, "ELEVATION": 45.1, "OBJECTID": 162}},
{"type": "Feature", "geometry": {"type": "Point", "coordinates": [-71.4383, 42.9333]}, "properties": {"STATION_ID": "USW00014710", "STATION_NAME": "MANCHESTER AP", "STATE": "NH", "COUNTRY": "US", "LATITUDE": 42.9333, "LONGITUDE": -71.4383, "ELEVATION": 68.6, "OBJECTID": 163}},
{"type": "Feature", "geometry": {"type": "Point", "coordinates": [-75.7333, 44.05]}, "properties": {"STATION_ID": "USW00014715", "STATION_NAME": "WHEELER SACK FLD AAF", "STATE": "NY", "COUNTRY": "US", "LATITUDE": 44.05, "LONGITUDE": -75.7333, "ELEVATION": 214.0, "OBJECTID": 164}},
{"type": "Feature", "geometry": {"type": "Point", "coordinates": [-73.8803, 40.7794]}, "properties": {"STATION_ID": "USW00014732", "STATION_NAME": "NEW YORK LAGUARDIA AP", "STATE": "NY", "COUNTRY": "US", "LATITUDE": 40.7794, "LONGITUDE": -73.8803, "ELEVATION": 3.4, "OBJECTID": 165}},
{"type": "Feature", "geometry": {"type": "Point", "coordinates": [-78.7369, 42.9486]}, "properties": {"STATION_ID": "USW00014733", "STATION_NAME": "BUFFALO", "STATE": "NY", "COUNTRY": "US", "LATITUDE": 42.9486, "LONGITUDE": -78.7369, "ELEVATION": 211.2, "OBJECTID": 166}},
{"type": "Feature", "geometry": {"type": "Point", "coordinates": [-74.1694, 40.6825]}, "properties": {"STATION_ID": "USW00014734", "STATION_NAME": "NEWARK INTL AP", "STATE": "NJ", "COUNTRY": "US", "LATITUDE": 40.6825, "LONGITUDE": -74.1694, "ELEVATION": 2.1, "OBJECTID": 167}},
{"type": "Feature", "geometry": {"type": "Point", "coordinates": [-73.8092, 42.7431]}, "properties": {"STATION_ID": "USW00014735", "STATION_NAME": "ALBANY AP", "STATE": "NY", "COUNTRY": "US", "LATITUDE": 42.7431, "LONGITUDE": -73.8092, "ELEVATION": 95.1, "OBJECTID": 168}},
{"type": "Feature", "geometry": {"type": "Point", "coordinates": [-78.3203, 40.2964]}, "properties": {"STATION_ID": "USW00014736", "STATION_NAME": "ALTOONA BLAIR CO AP", "STATE": "PA", "COUNTRY": "US", "LATITUDE": 40.2964, "LONGITUDE": -78.3203, "ELEVATION": 451.1, "OBJECTID": 169}},
{"type": "Feature", "geometry": {"type": "Point", "coordinates": [-75.4492, 40.6508]}, "properties": {"STATION_ID": "USW00014737", "STATION_NAME": "ALLENTOWN INTL AP", "STATE": "PA", "COUNTRY": "US", "LATITUDE": 40.6508, "LONGITUDE": -75.4492, "ELEVATION": 118.9, "OBJECTID": 170}},
{"type": "Feature", "geometry": {"type": "Point", "coordinates": [-71.0106, 42.3606]}, "properties": {"STATION_ID": "USW00014739", "STATION_NAME": "BOSTON LOGAN INTL AP", "STATE": "MA", "COUNTRY": "US", "LATITUDE": 42.3606, "LONGITUDE": -71.0106, "ELEVATION": 3.7, "OBJECTID": 171}},
{"type": "Feature", "geometry": {"type": "Point", "coordinates": [-72.6825, 41.9381]}, "properties": {"STATION_ID": "USW00014740", "STATION_NAME": "HARTFORD BRADLEY INTL AP", "STATE": "CT", "COUNTRY": "US", "LATITUDE": 41.9381, "LONGITUDE": -72.6825, "ELEVATION": 57.9, "OBJECTID": 172}},
{"type": "Feature", "geometry": {"type": "Point", "coordinates": [-73.15, 44.4683]}, "properties": {"STATION_ID": "USW00014742", "STATION_NAME": "BURLINGTON INTL AP", "STATE": "VT", "COUNTRY": "US", "LATITUDE": 44.4683, "LONGITUDE": -73.15, "ELEVATION": 100.6, "OBJECTID": 173}},
{"type": "Feature", "geometry": {"type": "Point", "coordinates": [-71.5011, 43.1953]}, "properties": {"STATION_ID": "USW00014745", "STATION_NAME": "CONCORD MUNI AP", "STATE": "NH", "COUNTRY": "US", "LATITUDE": 43.1953, "LONGITUDE": -71.5011, "ELEVATION": 105.5, "OBJECTID": 174}},
{"type": "Feature", "geometry": {"type": "Point", "coordinates": [-76.8919, 42.1594]}, "properties": {"STATION_ID": "USW00014748", "STATION_NAME": "ELMIRA CORNING RGNL AP", "STATE": "NY", "COUNTRY": "US", "LATITUDE": 42.1594, "LONGITUDE": -76.8919, "ELEVATION": 291.1, "OBJECTID": 175}},
{"type": "Feature", "geometry": {"type": "Point", "coordinates": [-73.8842, 41.6267]}, "properties": {"STATION_ID": "USW00014757", "STATION_NAME": "POUGHKEEPSIE DUTCHESS CO AP", "STATE": "NY", "COUNTRY": "US", "LATITUDE": 41.6267, "LONGITUDE": -73.8842, "ELEVATION": 50.6, "OBJECTID": 176}},
{"type": "Feature", "geometry": {"type": "Point", "coordinates": [-79.9217, 40.3547]}, "properties": {"STATION_ID": "USW00014762", "STATION_NAME": "PITTSBURGH ALLEGHENY CO AP", "STATE": "PA", "COUNTRY": "US", "LATITUDE": 40.3547, "LONGITUDE": -79.9217, "ELEVATION": 380.4, "OBJECTID": 177}},
{"type": "Feature", "geometry": {"type": "Point", "coordinates": [-70.3003, 43.6497]}, "properties": {"STATION_ID": "USW00014764", "STATION_NAME": "PORTLAND INTL JETPORT", "STATE": "ME", "COUNTRY": "US", "LATITUDE": 43.6497, "LONGITUDE": -70.3003, "ELEVATION": 13.7, "OBJECTID": 178}},
{"type": "Feature", "geometry": {"type": "Point", "coordinates": [-71.4325, 41.7219]}, "properties": {"STATION_ID": "USW00014765", "STATION_NAME": "PROVIDENCE T F GREEN AP", "STATE": "RI", "COUNTRY": "US", "LATITUDE": 41.7219, "LONGITUDE": -71.4325, "ELEVATION": 18.3, "OBJECTID": 179}},
{"type": "Feature", "geometry": {"type": "Point", "coordinates": [-77.6767, 43.1167]}, "properties": {"STATION_ID": "USW00014768", "STATION_NAME": "ROCHESTER GTR INTL AP", "STATE": "NY", "COUNTRY": "US", "LATITUDE": 43.1167, "LONGITUDE": -77.6767, "ELEVATION": 162.5, "OBJECTID": 180}},
{"type": "Feature", "geometry": {"type": "Point", "coordinates": [-76.1039, 43.1111]}, "properties": {"STATION_ID": "USW00014771", "STATION_NAME": "SYRACUSE HANCOCK INTL AP", "STATE": "NY", "COUNTRY": "US", "LATITUDE": 43.1111, "LONGITUDE": -76.1039, "ELEVATION": 125.9, "OBJECTID": 181}},
{"type": "Feature", "geometry": {"type": "Point", "coordinates": [-75.7269, 41.3336]}, "properties": {"STATION_ID": "USW00014777", "STATION_NAME": "WILKES-BARRE INTL AP", "STATE": "PA", "COUNTRY": "US", "LATITUDE": 41.3336, "LONGITUDE": -75.7269, "ELEVATION": 283.5, "OBJECTID": 182}},
{"type": "Feature", "geometry": {"type": "Point", "coordinates": [-76.9217, 41.2433]}, "properties": {"STATION_ID": "USW00014778", "STATION_NAME": "WILLIAMSPORT", "STATE": "PA", "COUNTRY": "US", "LATITUDE": 41.2433, "LONGITUDE": -76.9217, "ELEVATION": 158.5, "OBJECTID": 183}},
{"type": "Feature", "geometry": {"type": "Point", "coordinates": [-82.8183, 42.6083]}, "properties": {"STATION_ID": "USW00014804", "STATION_NAME": "MT CLEMENS ANG BASE", "STATE": "MI", "COUNTRY": "US", "LATITUDE": 42.6083, "LONGITUDE": -82.8183, "ELEVATION": 176.8, "OBJECTID": 184}},
{"type": "Feature", "geometry": {"type": "Point", "coordinates": [-87.7522, 41.7861]}, "properties": {"STATION_ID": "USW00014819", "STATION_NAME": "CHICAGO MIDWAY AP", "STATE": "IL", "COUNTRY": "US", "LATITUDE": 41.7861, "LONGITUDE": -87.7522, "ELEVATION": 186.5, "OBJECTID": 185}},
{"type": "Feature", "geometry": {"type": "Point", "coordinates": [-81.86, 41.4131]}, "properties": {"STATION_ID": "USW00014820", "STATION_NAME": "CLEVELAND", "STATE": "OH", "COUNTRY": "US", "LATITUDE": 41.4131, "LONGITUDE": -81.86, "ELEVATION": 232.6, "OBJECTID": 186}},
{"type": "Feature", "geometry": {"type": "Point", "coordinates": [-82.8808, 39.9914]}, "properties": {"STATION_ID": "USW00014821", "STATION_NAME": "COLUMBUS PORT COLUMBUS INTL AP", "STATE": "OH", "COUNTRY": "US", "LATITUDE": 39.9914, "LONGITUDE": -82.8808, "ELEVATION": 246.9, "OBJECTID": 187}},
{"type": "Feature", "geometry": {"type": "Point", "coordinates": [-83.01, 42.4092]}, "properties": {"STATION_ID": "USW00014822", "STATION_NAME": "DETROIT CITY AP", "STATE": "MI", "COUNTRY": "US", "LATITUDE": 42.4092, "LONGITUDE": -83.01, "ELEVATION": 190.8, "OBJECTID": 188}},
{"type": "Feature", "geometry": {"type": "Point", "coordinates": [-83.6686, 41.0136]}, "properties": {"STATION_ID": "USW00014825", "STATION_NAME": "FINDLAY AP", "STATE": "OH", "COUNTRY": "US", "LATITUDE": 41.0136, "LONGITUDE": -83.6686, "ELEVATION": 243.8, "OBJECTID": 189}},
{"type": "Feature", "geometry": {"type": "Point", "coordinates": [-83.7494, 42.9667]}, "properties": {"STATION_ID": "USW00014826", "STATION_NAME": "FLINT BISHOP INTL AP", "STATE": "MI", "COUNTRY": "US", "LATITUDE": 42.9667, "LONGITUDE": -83.7494, "ELEVATION": 234.7, "OBJECTID": 190}},
{"type": "Feature", "geometry": {"type": "Point", "coordinates": [-85.2064, 40.9706]}, "properties": {"STATION_ID": "USW00014827", "STATION_NAME": "FT WAYNE INTL AP", "STATE": "IN", "COUNTRY": "US", "LATITUDE": 40.9706, "LONGITUDE": -85.2064, "ELEVATION": 241.1, "OBJECTID": 191}},
{"type": "Feature", "geometry": {"type": "Point", "coordinates": [-84.4667, 42.2667]}, "properties": {"STATION_ID": "USW00014833", "STATION_NAME": "JACKSON REYNOLDS FLD", "STATE": "MI", "COUNTRY": "US", "LATITUDE": 42.2667, "LONGITUDE": -84.4667, "ELEVATION": 304.2, "OBJECTID": 192}},
{"type": "Feature", "geometry": {"type": "Point", "coordinates": [-86.9369, 40.4122]}, "properties": {"STATION_ID": "USW00014835", "STATION_NAME": "LAFAYETTE PURDUE UNIV AP", "STATE": "IN", "COUNTRY": "US", "LATITUDE": 40.4122, "LONGITUDE": -86.9369, "ELEVATION": 182.6, "OBJECTID": 193}},
{"type": "Feature", "geometry": {"type": "Point", "coordinates": [-84.5789, 42.7803]}, "properties": {"STATION_ID": "USW00014836", "STATION_NAME": "LANSING CAPITAL CITY AP", "STATE": "MI", "COUNTRY": "US", "LATITUDE": 42.7803, "LONGITUDE": -84.5789, "ELEVATION": 256.3, "OBJECTID": 194}},
{"type": "Feature", "geometry": {"type": "Point", "coordinates": [-89.3453, 43.1406]}, "properties": {"STATION_ID": "USW00014837", "STATION_NAME": "MADISON DANE RGNL AP", "STATE": "WI", "COUNTRY": "US", "LATITUDE": 43.1406, "LONGITUDE": -89.3453, "ELEVATION": 264.0, "OBJECTID": 195}},
{"type": "Feature", "geometry": {"type": "Point", "coordinates": [-87.9044, 42.955]}, "properties": {"STATION_ID": "USW00014839", "STATION_NAME": "MILWAUKEE MITCHELL AP", "STATE": "WI", "COUNTRY": "US", "LATITUDE": 42.955, "LONGITUDE": -87.9044, "ELEVATION": 204.2, "OBJECTID": 196}},
{"type": "Feature", "geometry": {"type": "Point", "coordinates": [-86.2367, 43.1711]}, "properties": {"STATION_ID": "USW00014840", "STATION_NAME": "MUSKEGON CO AP", "STATE": "MI", "COUNTRY": "US", "LATITUDE": 43.1711, "LONGITUDE": -86.2367, "ELEVATION": 190.5, "OBJECTID": 197}},
{"type": "Feature", "geometry": {"type": "Point", "coordinates": [-84.7928, 45.5644]}, "properties": {"STATION_ID": "USW00014841", "STATION_NAME": "PELLSTON RGNL AP", "STATE": "MI", "COUNTRY": "US", "LATITUDE": 45.5644, "LONGITUDE": -84.7928, "ELEVATION": 214.9, "OBJECTID": 198}},
{"type": "Feature", "geometry": {"type": "Point", "coordinates": [-89.6839, 40.6675]}, "properties": {"STATION_ID": "USW00014842", "STATION_NAME": "PEORIA GTR PEORIA AP", "STATE": "IL", "COUNTRY": "US", "LATITUDE": 40.6675, "LONGITUDE": -89.6839, "ELEVATION": 198.1, "OBJECTID": 199}},
{"type": "Feature", "geometry": {"type": "Point", "coordinates": [-84.0797, 43.5331]}, "properties": {"STATION_ID": "USW00014845", "STATION_NAME": "SAGINAW MBS INTL AP", "STATE": "MI", "COUNTRY": "US", "LATITUDE": 43.5331, "LONGITUDE": -84.0797, "ELEVATION": 201.2, "OBJECTID": 200}},
{"type": "Feature", "geometry": {"type": "Point", "coordinates": [-84.3572, 46.4794]}, "properties": {"STATION_ID": "USW00014847", "STATION_NAME": "SAULT STE MARIE SANDERSON FLD", "STATE": "MI", "COUNTRY": "US", "LATITUDE": 46.4794, "LONGITUDE": -84.3572, "ELEVATION": 220.1, "OBJECTID": 201}},
{"type": "Feature", "geometry": {"type": "Point", "coordinates": [-86.3164, 41.7072]}, "properties": {"STATION_ID": "USW00014848", "STATION_NAME": "SOUTH BEND MICHIANA RGNL AP", "STATE": "IN", "COUNTRY": "US", "LATITUDE": 41.7072, "LONGITUDE": -86.3164, "ELEVATION": 235.6, "OBJECTID": 202}},
{"type": "Feature", "geometry": {"type": "Point", "coordinates": [-85.5825, 44.7408]}, "properties": {"STATION_ID": "USW00014850", "STATION_NAME": "TRAVERSE CITY CHERRY CPTL AP", "STATE": "MI", "COUNTRY": "US", "LATITUDE": 44.7408, "LONGITUDE": -85.5825, "ELEVATION": 188.4, "OBJECTID": 203}},
{"type": "Feature", "geometry": {"type": "Point", "coordinates": [-80.6739, 41.2544]}, "properties": {"STATION_ID": "USW00014852", "STATION_NAME": "YOUNGSTOWN RGNL AP", "STATE": "OH", "COUNTRY": "US", "LATITUDE": 41.2544, "LONGITUDE": -80.6739, "ELEVATION": 359.7, "OBJECTID": 204}},
{"type": "Feature", "geometry": {"type": "Point", "coordinates": [-83.5333, 42.2333]}, "properties": {"STATION_ID": "USW00014853", "STATION_NAME": "DETROIT WILLOW RUN AP", "STATE": "MI", "COUNTRY": "US", "LATITUDE": 42.2333, "LONGITUDE": -83.5333, "ELEVATION": 236.8, "OBJECTID": 205}},
{"type": "Feature", "geometry": {"type": "Point", "coordinates": [-88.4889, 47.1686]}, "properties": {"STATION_ID": "USW00014858", "STATION_NAME": "HANCOCK HOUGHTON CO AP", "STATE": "MI", "COUNTRY": "US", "LATITUDE": 47.1686, "LONGITUDE": -88.4889, "ELEVATION": 333.8, "OBJECTID": 206}},
{"type": "Feature", "geometry": {"type": "Point", "coordinates": [-80.1825, 42.08]}, "properties": {"STATION_ID": "USW00014860", "STATION_NAME": "ERIE INTL AP", "STATE": "PA", "COUNTRY": "US", "LATITUDE": 42.08, "LONGITUDE": -80.1825, "ELEVATION": 222.5, "OBJECTID": 207}},
{"type": "Feature", "geometry": {"type": "Point", "coordinates": [-81.4333, 40.9167]}, "properties": {"STATION_ID": "USW00014895", "STATION_NAME": "AKRON CANTON RGNL AP", "STATE": "OH", "COUNTRY": "US", "LATITUDE": 40.9167, "LONGITUDE": -81.4333, "ELEVATION": 368.2, "OBJECTID": 208}},
{"type": "Feature", "geometry": {"type": "Point", "coordinates": [-89.6256, 44.9258]}, "properties": {"STATION_ID": "USW00014897", "STATION_NAME": "WAUSAU DWTN AP", "STATE": "WI", "COUNTRY": "US", "LATITUDE": 44.9258, "LONGITUDE": -89.6256, "ELEVATION": 360.0, "OBJECTID": 209}},
{"type": "Feature", "geometry": {"type": "Point", "coordinates": [-88.1111, 44.4983]}, "properties": {"STATION_ID": "USW00014898", "STATION_NAME": "GREEN BAY", "STATE": "WI", "COUNTRY": "US", "LATITUDE": 44.4983, "LONGITUDE": -88.1111, "ELEVATION": 207.9, "OBJECTID": 210}},
{"type": "Feature", "geometry": {"type": "Point", "coordinates": [-95.3942, 45.8678]}, "properties": {"STATION_ID": "USW00014910", "STATION_NAME": "ALEXANDRIA MUNI AP", "STATE": "MN", "COUNTRY": "US", "LATITUDE": 45.8678, "LONGITUDE": -95.3942, "ELEVATION": 431.6, "OBJECTID": 211}},
{"type": "Feature", "geometry": {"type": "Point", "coordinates": [-92.2097, 46.8369]}, "properties": {"STATION_ID": "USW00014913", "STATION_NAME": "DULUTH", "STATE": "MN", "COUNTRY": "US", "LATITUDE": 46.8369, "LONGITUDE": -92.2097, "ELEVATION": 435.3, "OBJECTID": 212}},
{"type": "Feature", "geometry": {"type": "Point", "coordinates": [-96.8111, 46.9253]}, "properties": {"STATION_ID": "USW00014914", "STATION_NAME": "FARGO HECTOR INTL AP", "STATE": "ND", "COUNTRY": "US", "LATITUDE": 46.9253, "LONGITUDE": -96.8111, "ELEVATION": 274.3, "OBJECTID": 213}},
{"type": "Feature", "geometry": {"type": "Point", "coordinates": [-93.3981, 48.5614]}, "properties": {"STATION_ID": "USW00014918", "STATION_NAME": "INTL FALLS INTL AP", "STATE": "MN", "COUNTRY": "US", "LATITUDE": 48.5614, "LONGITUDE": -93.3981, "ELEVATION": 360.6, "OBJECTID": 214}},
{"type": "Feature", "geometry": {"type": "Point", "coordinates": [-98.6692, 46.9258]}, "properties": {"STATION_ID": "USW00014919", "STATION_NAME": "JAMESTOWN MUNI AP", "STATE": "ND", "COUNTRY": "US", "LATITUDE": 46.9258, "LONGITUDE": -98.6692, "ELEVATION": 455.4, "OBJECTID": 215}},
{"type": "Feature", "geometry": {"type": "Point", "coordinates": [-91.2528, 43.8789]}, "properties": {"STATION_ID": "USW00014920", "STATION_NAME": "LA CROSSE MUNI AP", "STATE": "WI", "COUNTRY": "US", "LATITUDE": 43.8789, "LONGITUDE": -91.2528, "ELEVATION": 198.7, "OBJECTID": 216}},
{"type": "Feature", "geometry": {"type": "Point", "coordinates": [-93.2289, 44.8831]}, "properties": {"STATION_ID": "USW00014922", "STATION_NAME": "MINNEAPOLIS/ST PAUL AP", "STATE": "MN", "COUNTRY": "US", "LATITUDE": 44.8831, "LONGITUDE": -93.2289, "ELEVATION": 265.8, "OBJECTID": 217}},
{"type": "Feature", "geometry": {"type": "Point", "coordinates": [-90.5233, 41.4653]}, "properties": {"STATION_ID": "USW00014923", "STATION_NAME": "MOLINE QUAD CITY INTL AP", "STATE": "IL", "COUNTRY": "US", "LATITUDE": 41.4653, "LONGITUDE": -90.5233, "ELEVATION": 180.4, "OBJECTID": 218}},
{"type": "Feature", "geometry": {"type": "Point", "coordinates": [-92.4917, 43.9042]}, "properties": {"STATION_ID": "USW00014925", "STATION_NAME": "ROCHESTER INTL AP", "STATE": "MN", "COUNTRY": "US", "LATITUDE": 43.9042, "LONGITUDE": -92.4917, "ELEVATION": 397.5, "OBJECTID": 219}},
{"type": "Feature", "geometry": {"type": "Point", "coordinates": [-94.0514, 45.5433]}, "properties": {"STATION_ID": "USW00014926", "STATION_NAME": "ST CLOUD RGNL AP", "STATE": "MN", "COUNTRY": "US", "LATITUDE": 45.5433, "LONGITUDE": -94.0514, "ELEVATION": 310.3, "OBJECTID": 220}},
{"type": "Feature", "geometry": {"type": "Point", "coordinates": [-93.0556, 44.9319]}, "properties": {"STATION_ID": "USW00014927", "STATION_NAME": "ST PAUL DOWNTOWN AP", "STATE": "MN", "COUNTRY": "US", "LATITUDE": 44.9319, "LONGITUDE": -93.0556, "ELEVATION": 213.4, "OBJECTID": 221}},
{"type": "Feature", "geometry": {"type": "Point", "coordinates": [-98.4131, 45.4558]}, "properties": {"STATION_ID": "USW00014929", "STATION_NAME": "ABERDEEN", "STATE": "SD", "COUNTRY": "US", "LATITUDE": 45.4558, "LONGITUDE": -98.4131, "ELEVATION": 396.8, "OBJECTID": 222}},
{"type": "Feature", "geometry": {"type": "Point", "coordinates": [-93.6531, 41.5339]}, "properties": {"STATION_ID": "USW00014933", "STATION_NAME": "DES MOINES INTL AP", "STATE": "IA", "COUNTRY": "US", "LATITUDE": 41.5339, "LONGITUDE": -93.6531, "ELEVATION": 291.7, "OBJECTID": 223}},
{"type": "Feature", "geometry": {"type": "Point", "coordinates": [-98.3136, 40.9611]}, "properties": {"STATION_ID": "USW00014935", "STATION_NAME": "GRAND ISLAND AP", "STATE": "NE", "COUNTRY": "US", "LATITUDE": 40.9611, "LONGITUDE": -98.3136, "ELEVATION": 560.8, "OBJECTID": 224}},
{"type": "Feature", "geometry": {"type": "Point", "coordinates": [-98.2231, 44.3981]}, "properties": {"STATION_ID": "USW00014936", "STATION_NAME": "HURON RGNL AP", "STATE": "SD", "COUNTRY": "US", "LATITUDE": 44.3981, "LONGITUDE": -98.2231, "ELEVATION": 390.1, "OBJECTID": 225}},
{"type": "Feature", "geometry": {"type": "Point", "coordinates": [-96.7475, 40.8508]}, "properties": {"STATION_ID": "USW00014939", "STATION_NAME": "LINCOLN MUNI AP", "STATE": "NE", "COUNTRY": "US", "LATITUDE": 40.8508, "LONGITUDE": -96.7475, "ELEVATION": 362.7, "OBJECTID": 226}},
{"type": "Feature", "geometry": {"type": "Point", "coordinates": [-93.3269, 43.1544]}, "properties": {"STATION_ID": "USW00014940", "STATION_NAME": "MASON CITY MUNI AP", "STATE": "IA", "COUNTRY": "US", "LATITUDE": 43.1544, "LONGITUDE": -93.3269, "ELEVATION": 373.4, "OBJECTID": 227}},
{"type": "Feature", "geometry": {"type": "Point", "coordinates": [-97.4353, 41.9856]}, "properties": {"STATION_ID": "USW00014941", "STATION_NAME": "NORFOLK KARL STEFAN AP", "STATE": "NE", "COUNTRY": "US", "LATITUDE": 41.9856, "LONGITUDE": -97.4353, "ELEVATION": 472.7, "OBJECTID": 228}},
{"type": "Feature", "geometry": {"type": "Point", "coordinates": [-95.8992, 41.3103]}, "properties": {"STATION_ID": "USW00014942", "STATION_NAME": "OMAHA EPPLEY AIRFIELD", "STATE": "NE", "COUNTRY": "US", "LATITUDE": 41.3103, "LONGITUDE": -95.8992, "ELEVATION": 299.3, "OBJECTID": 229}},
{"type": "Feature", "geometry": {"type": "Point", "coordinates": [-96.3792, 42.3914]}, "properties": {"STATION_ID": "USW00014943", "STATION_NAME": "SIOUX CITY GATEWAY AP", "STATE": "IA", "COUNTRY": "US", "LATITUDE": 42.3914, "LONGITUDE": -96.3792, "ELEVATION": 333.8, "OBJECTID": 230}},
{"type": "Feature", "geometry": {"type": "Point", "coordinates": [-96.7289, 43.5878]}, "properties": {"STATION_ID": "USW00014944", "STATION_NAME": "SIOUX FALLS", "STATE": "SD", "COUNTRY": "US", "LATITUDE": 43.5878, "LONGITUDE": -96.7289, "ELEVATION": 435.9, "OBJECTID": 231}},
{"type": "Feature", "geometry": {"type": "Point", "coordinates": [-97.1494, 44.9047]}, "properties": {"STATION_ID": "USW00014946", "STATION_NAME": "WATERTOWN RGNL AP", "STATE": "SD", "COUNTRY": "US", "LATITUDE": 44.9047, "LONGITUDE": -97.1494, "ELEVATION": 532.8, "OBJECTID": 232}},
{"type": "Feature", "geometry": {"type": "Point", "coordinates": [-95.9167, 41.1167]}, "properties": {"STATION_ID": "USW00014949", "STATION_NAME": "BELLEVUE OFFUTT AFB", "STATE": "NE", "COUNTRY": "US", "LATITUDE": 41.1167, "LONGITUDE": -95.9167, "ELEVATION": 319.1, "OBJECTID": 233}},
{"type": "Feature", "geometry": {"type": "Point", "coordinates": [-92.4467, 41.1078]}, "properties": {"STATION_ID": "USW00014950", "STATION_NAME": "OTTUMWA INDUSTRIAL AP", "STATE": "IA", "COUNTRY": "US", "LATITUDE": 41.1078, "LONGITUDE": -92.4467, "ELEVATION": 256.6, "OBJECTID": 234}},
{"type": "Feature", "geometry": {"type": "Point", "coordinates": [-91.7167, 41.8833]}, "properties": {"STATION_ID": "USW00014990", "STATION_NAME": "CEDAR RAPIDS MUNI AP", "STATE": "IA", "COUNTRY": "US", "LATITUDE": 41.8833, "LONGITUDE": -91.7167, "ELEVATION": 264.6, "OBJECTID": 235}},
{"type": "Feature", "geometry": {"type": "Point", "coordinates": [-91.4878, 44.8664]}, "properties": {"STATION_ID": "USW00014991", "STATION_NAME": "EAU CLAIRE RGNL AP", "STATE": "WI", "COUNTRY": "US", "LATITUDE": 44.8664, "LONGITUDE": -91.4878, "ELEVATION": 269.7, "OBJECTID": 236}},
{"type": "Feature", "geometry": {"type": "Point", "coordinates": [-95.0803, 44.5483]}, "properties": {"STATION_ID": "USW00014992", "STATION_NAME": "REDWOOD FALLS MUNI AP", "STATE": "MN", "COUNTRY": "US", "LATITUDE": 44.5483, "LONGITUDE": -95.0803, "ELEVATION": 311.2, "OBJECTID": 237}},
{"type": "Feature", "geometry": {"type": "Point", "coordinates": [-155.0531, 19.7192]}, "properties": {"STATION_ID": "USW00021504", "STATION_NAME": "HILO INTL AP", "STATE": "HI", "COUNTRY": "US", "LATITUDE": 19.7192, "LONGITUDE": -155.0531, "ELEVATION": 11.6, "OBJECTID": 238}},
{"type": "Feature", "geometry": {"type": "Point", "coordinates": [-100.9269, 29.3783]}, "properties": {"STATION_ID": "USW00022010", "STATION_NAME": "DEL RIO INTL AP", "STATE": "TX", "COUNTRY": "US", "LATITUDE": 29.3783, "LONGITUDE": -100.9269, "ELEVATION": 304.5, "OBJECTID": 239}},
{"type": "Feature", "geometry": {"type": "Point", "coordinates": [-156.4286, 20.8997]}, "properties": {"STATION_ID": "USW00022516", "STATION_NAME": "KAHULUI AP", "STATE": "HI", "COUNTRY": "US", "LATITUDE": 20.8997, "LONGITUDE": -156.4286, "ELEVATION": 15.5, "OBJECTID": 240}},
{"type": "Feature", "geometry": {"type": "Point", "coordinates": [-157.7833, 21.45]}, "properties": {"STATION_ID": "USW00022519", "STATION_NAME": "KANEOHE BAY MCAS", "STATE": "HI", "COUNTRY": "US", "LATITUDE": 21.45, "LONGITUDE": -157.7833, "ELEVATION": 3.0, "OBJECTID": 241}},
{"type": "Feature", "geometry": {"type": "Point", "coordinates": [-157.9294, 21.3239]}, "properties": {"STATION_ID": "USW00022521", "STATION_NAME": "HONOLULU INTL AP", "STATE": "HI", "COUNTRY": "US", "LATITUDE": 21.3239, "LONGITUDE": -157.9294, "ELEVATION": 2.1, "OBJECTID": 242}},
{"type": "Feature", "geometry": {"type": "Point", "coordinates": [-157.0961, 21.1544]}, "properties": {"STATION_ID": "USW00022534", "STATION_NAME": "MOLOKAI AP", "STATE": "HI", "COUNTRY": "US", "LATITUDE": 21.1544, "LONGITUDE": -157.0961, "ELEVATION": 135.0, "OBJECTID": 243}},
{"type": "Feature", "geometry": {"type": "Point", "coordinates": [-159.3405, 21.9839]}, "properties": {"STATION_ID": "USW00022536", "STATION_NAME": "LIHUE WSO AP 1020.1", "STATE": "HI", "COUNTRY": "US", "LATITUDE": 21.9839, "LONGITUDE": -159.3405, "ELEVATION": 30.5, "OBJECTID": 244}},
{"type": "Feature", "geometry": {"type": "Point", "coordinates": [-103.3167, 34.3833]}, "properties": {"STATION_ID": "USW00023008", "STATION_NAME": "CLOVIS CANNON AFB", "STATE": "NM", "COUNTRY": "US", "LATITUDE": 34.3833, "LONGITUDE": -103.3167, "ELEVATION": 1309.1, "OBJECTID": 245}},
{"type": "Feature", "geometry": {"type": "Point", "coordinates": [-104.5083, 33.3075]}, "properties": {"STATION_ID": "USW00023009", "STATION_NAME": "ROSWELL IND AIR PK", "STATE": "NM", "COUNTRY": "US", "LATITUDE": 33.3075, "LONGITUDE": -104.5083, "ELEVATION": 1112.2, "OBJECTID": 246}},
{"type": "Feature", "geometry": {"type": "Point", "coordinates": [-102.1889, 31.9433]}, "properties": {"STATION_ID": "USW00023023", "STATION_NAME": "MIDLAND ODESSA", "STATE": "TX", "COUNTRY": "US", "LATITUDE": 31.9433, "LONGITUDE": -102.1889, "ELEVATION": 874.2, "OBJECTID": 247}},
{"type": "Feature", "geometry": {"type": "Point", "coordinates": [-100.4922, 31.3711]}, "properties": {"STATION_ID": "USW00023034", "STATION_NAME": "SAN ANGELO", "STATE": "TX", "COUNTRY": "US", "LATITUDE": 31.3711, "LONGITUDE": -100.4922, "ELEVATION": 576.1, "OBJECTID": 248}},
{"type": "Feature", "geometry": {"type": "Point", "coordinates": [-104.75, 39.7167]}, "properties": {"STATION_ID": "USW00023036", "STATION_NAME": "AURORA BUCKLEY FLD ANGB", "STATE": "CO", "COUNTRY": "US", "LATITUDE": 39.7167, "LONGITUDE": -104.75, "ELEVATION": 1726.1, "OBJECTID": 249}},
{"type": "Feature", "geometry": {"type": "Point", "coordinates": [-103.2017, 31.78]}, "properties": {"STATION_ID": "USW00023040", "STATION_NAME": "WINKLER CO AP", "STATE": "TX", "COUNTRY": "US", "LATITUDE": 31.78, "LONGITUDE": -103.2017, "ELEVATION": 855.6, "OBJECTID": 250}},
{"type": "Feature", "geometry": {"type": "Point", "coordinates": [-101.8136, 33.6542]}, "properties": {"STATION_ID": "USW00023042", "STATION_NAME": "LUBBOCK", "STATE": "TX", "COUNTRY": "US", "LATITUDE": 33.6542, "LONGITUDE": -101.8136, "ELEVATION": 993.3, "OBJECTID": 251}},
{"type": "Feature", "geometry": {"type": "Point", "coordinates": [-106.3758, 31.8111]}, "properties": {"STATION_ID": "USW00023044", "STATION_NAME": "EL PASO INTL AP", "STATE": "TX", "COUNTRY": "US", "LATITUDE": 31.8111, "LONGITUDE": -106.3758, "ELEVATION": 1194.2, "OBJECTID": 252}},
{"type": "Feature", "geometry": {"type": "Point", "coordinates": [-101.7089, 35.2333]}, "properties": {"STATION_ID": "USW00023047", "STATION_NAME": "AMARILLO", "STATE": "TX", "COUNTRY": "US", "LATITUDE": 35.2333, "LONGITUDE": -101.7089, "ELEVATION": 1093.3, "OBJECTID": 253}},
{"type": "Feature", "geometry": {"type": "Point", "coordinates": [-106.6156, 35.0419]}, "properties": {"STATION_ID": "USW00023050", "STATION_NAME": "ALBUQUERQUE INTL AP", "STATE": "NM", "COUNTRY": "US", "LATITUDE": 35.0419, "LONGITUDE": -106.6156, "ELEVATION": 1618.5, "OBJECTID": 254}},
{"type": "Feature", "geometry": {"type": "Point", "coordinates": [-103.1539, 36.4486]}, "properties": {"STATION_ID": "USW00023051", "STATION_NAME": "CLAYTON MUNI AIR PK", "STATE": "NM", "COUNTRY": "US", "LATITUDE": 36.4486, "LONGITUDE": -103.1539, "ELEVATION": 1511.8, "OBJECTID": 255}},
{"type": "Feature", "geometry": {"type": "Point", "coordinates": [-105.8614, 37.4389]}, "properties": {"STATION_ID": "USW00023061", "STATION_NAME": "ALAMOSA SAN LUIS AP", "STATE": "CO", "COUNTRY": "US", "LATITUDE": 37.4389, "LONGITUDE": -105.8614, "ELEVATION": 2296.1, "OBJECTID": 256}},
{"type": "Feature", "geometry": {"type": "Point", "coordinates": [-100.7247, 37.9272]}, "properties": {"STATION_ID": "USW00023064", "STATION_NAME": "GARDEN CITY RGNL AP", "STATE": "KS", "COUNTRY": "US", "LATITUDE": 37.9272, "LONGITUDE": -100.7247, "ELEVATION": 878.4, "OBJECTID": 257}},
{"type": "Feature", "geometry": {"type": "Point", "coordinates": [-101.7, 39.3669]}, "properties": {"STATION_ID": "USW00023065", "STATION_NAME": "GOODLAND", "STATE": "KS", "COUNTRY": "US", "LATITUDE": 39.3669, "LONGITUDE": -101.7, "ELEVATION": 1112.8, "OBJECTID": 258}},
{"type": "Feature", "geometry": {"type": "Point", "coordinates": [-108.54, 39.1342]}, "properties": {"STATION_ID": "USW00023066", "STATION_NAME": "GRAND JUNCTION WALKER FLD", "STATE": "CO", "COUNTRY": "US", "LATITUDE": 39.1342, "LONGITUDE": -108.54, "ELEVATION": 1480.7, "OBJECTID": 259}},
{"type": "Feature", "geometry": {"type": "Point", "coordinates": [-103.5122, 38.0494]}, "properties": {"STATION_ID": "USW00023067", "STATION_NAME": "LA JUNTA MUNI AP", "STATE": "CO", "COUNTRY": "US", "LATITUDE": 38.0494, "LONGITUDE": -103.5122, "ELEVATION": 1278.3, "OBJECTID": 260}},
{"type": "Feature", "geometry": {"type": "Point", "coordinates": [-104.3378, 37.2622]}, "properties": {"STATION_ID": "USW00023070", "STATION_NAME": "TRINIDAD PERRY STOKES AP", "STATE": "CO", "COUNTRY": "US", "LATITUDE": 37.2622, "LONGITUDE": -104.3378, "ELEVATION": 1749.9, "OBJECTID": 261}},
{"type": "Feature", "geometry": {"type": "Point", "coordinates": [-108.7939, 35.5144]}, "properties": {"STATION_ID": "USW00023081", "STATION_NAME": "GALLUP MUNI AP", "STATE": "NM", "COUNTRY": "US", "LATITUDE": 35.5144, "LONGITUDE": -108.7939, "ELEVATION": 1972.4, "OBJECTID": 262}},
{"type": "Feature", "geometry": {"type": "Point", "coordinates": [-108.2292, 36.7436]}, "properties": {"STATION_ID": "USW00023090", "STATION_NAME": "FARMINGTON RGNL AP", "STATE": "NM", "COUNTRY": "US", "LATITUDE": 36.7436, "LONGITUDE": -108.2292, "ELEVATION": 1674.9, "OBJECTID": 263}},
{"type": "Feature", "geometry": {"type": "Point", "coordinates": [-110.8833, 32.1667]}, "properties": {"STATION_ID": "USW00023109", "STATION_NAME": "DAVIS MONTHAN AFB", "STATE": "AZ", "COUNTRY": "US", "LATITUDE": 32.1667, "LONGITUDE": -110.8833, "ELEVATION": 808.9, "OBJECTID": 264}},
{"type": "Feature", "geometry": {"type": "Point", "coordinates": [-117.25, 33.9]}, "properties": {"STATION_ID": "USW00023119", "STATION_NAME": "MARCH AFB", "STATE": "CA", "COUNTRY": "US", "LATITUDE": 33.9, "LONGITUDE": -117.25, "ELEVATION": 462.1, "OBJECTID": 265}},
{"type": "Feature", "geometry": {"type": "Point", "coordinates": [-119.0833, 34.2167]}, "properties": {"STATION_ID": "USW00023136", "STATION_NAME": "CAMARILLO AP", "STATE": "CA", "COUNTRY": "US", "LATITUDE": 34.2167, "LONGITUDE": -119.0833, "ELEVATION": 23.5, "OBJECTID": 266}},
{"type": "Feature", "geometry": {"type": "Point", "coordinates": [-118.3575, 34.2006]}, "properties": {"STATION_ID": "USW00023152", "STATION_NAME": "BURBANK GLENDALE PASADENA AP", "STATE": "CA", "COUNTRY": "US", "LATITUDE": 34.2006, "LONGITUDE": -118.3575, "ELEVATION": 225.9, "OBJECTID": 267}},
{"type": "Feature", "geometry": {"type": "Point", "coordinates": [-117.0903, 38.0511]}, "properties": {"STATION_ID": "USW00023153", "STATION_NAME": "TONOPAH", "STATE": "NV", "COUNTRY": "US", "LATITUDE": 38.0511, "LONGITUDE": -117.0903, "ELEVATION": 1644.4, "OBJECTID": 268}},
{"type": "Feature", "geometry": {"type": "Point", "coordinates": [-114.8467, 39.2953]}, "properties": {"STATION_ID": "USW00023154", "STATION_NAME": "ELY YELLAND FLD AP", "STATE": "NV", "COUNTRY": "US", "LATITUDE": 39.2953, "LONGITUDE": -114.8467, "ELEVATION": 1908.7, "OBJECTID": 269}},
{"type": "Feature", "geometry": {"type": "Point", "coordinates": [-119.0542, 35.4344]}, "properties": {"STATION_ID": "USW00023155", "STATION_NAME": "BAKERSFIELD AP", "STATE": "CA", "COUNTRY": "US", "LATITUDE": 35.4344, "LONGITUDE": -119.0542, "ELEVATION": 149.0, "OBJECTID": 270}},
{"type": "Feature", "geometry": {"type": "Point", "coordinates": [-118.3581, 37.3711]}, "properties": {"STATION_ID": "USW00023157", "STATION_NAME": "BISHOP AP", "STATE": "CA", "COUNTRY": "US", "LATITUDE": 37.3711, "LONGITUDE": -118.3581, "ELEVATION": 1250.3, "OBJECTID": 271}},
{"type": "Feature", "geometry": {"type": "Point", "coordinates": [-114.7142, 33.6186]}, "properties": {"STATION_ID": "USW00023158", "STATION_NAME": "BLYTHE AP", "STATE": "CA", "COUNTRY": "US", "LATITUDE": 33.6186, "LONGITUDE": -114.7142, "ELEVATION": 120.4, "OBJECTID": 272}},
{"type": "Feature", "geometry": {"type": "Point", "coordinates": [-110.9553, 32.1314]}, "properties": {"STATION_ID": "USW00023160", "STATION_NAME": "TUCSON INTL AP", "STATE": "AZ", "COUNTRY": "US", "LATITUDE": 32.1314, "LONGITUDE": -110.9553, "ELEVATION": 776.9, "OBJECTID": 273}},
{"type": "Feature", "geometry": {"type": "Point", "coordinates": [-116.7858, 34.8536]}, "properties": {"STATION_ID": "USW00023161", "STATION_NAME": "BARSTOW DAGGETT AP", "STATE": "CA", "COUNTRY": "US", "LATITUDE": 34.8536, "LONGITUDE": -116.7858, "ELEVATION": 584.3, "OBJECTID": 274}},
{"type": "Feature", "geometry": {"type": "Point", "coordinates": [-115.1633, 36.0719]}, "properties": {"STATION_ID": "USW00023169", "STATION_NAME": "LAS VEGAS MCCARRAN AP", "STATE": "NV", "COUNTRY": "US", "LATITUDE": 36.0719, "LONGITUDE": -115.1633, "ELEVATION": 649.5, "OBJECTID": 275}},
{"type": "Feature", "geometry": {"type": "Point", "coordinates": [-118.3889, 33.9381]}, "properties": {"STATION_ID": "USW00023174", "STATION_NAME": "LOS ANGELES INTL AP", "STATE": "CA", "COUNTRY": "US", "LATITUDE": 33.9381, "LONGITUDE": -118.3889, "ELEVATION": 29.6, "OBJECTID": 276}},
{"type": "Feature", "geometry": {"type": "Point", "coordinates": [-112.0039, 33.4278]}, "properties": {"STATION_ID": "USW00023183", "STATION_NAME": "PHOENIX SKY HARBOR INTL AP", "STATE": "AZ", "COUNTRY": "US", "LATITUDE": 33.4278, "LONGITUDE": -112.0039, "ELEVATION": 337.4, "OBJECTID": 277}},
{"type": "Feature", "geometry": {"type": "Point", "coordinates": [-112.4208, 34.6517]}, "properties": {"STATION_ID": "USW00023184", "STATION_NAME": "PRESCOTT LOVE FLD", "STATE": "AZ", "COUNTRY": "US", "LATITUDE": 34.6517, "LONGITUDE": -112.4208, "ELEVATION": 1536.8, "OBJECTID": 278}},
{"type": "Feature", "geometry": {"type": "Point", "coordinates": [-119.7711, 39.4839]}, "properties": {"STATION_ID": "USW00023185", "STATION_NAME": "RENO TAHOE INTL AP", "STATE": "NV", "COUNTRY": "US", "LATITUDE": 39.4839, "LONGITUDE": -119.7711, "ELEVATION": 1344.2, "OBJECTID": 279}},
{"type": "Feature", "geometry": {"type": "Point", "coordinates": [-117.1831, 32.7336]}, "properties": {"STATION_ID": "USW00023188", "STATION_NAME": "SAN DIEGO LINDBERGH FLD", "STATE": "CA", "COUNTRY": "US", "LATITUDE": 32.7336, "LONGITUDE": -117.1831, "ELEVATION": 4.6, "OBJECTID": 280}},
{"type": "Feature", "geometry": {"type": "Point", "coordinates": [-119.8425, 34.4258]}, "properties": {"STATION_ID": "USW00023190", "STATION_NAME": "SANTA BARBARA MUNI AP", "STATE": "CA", "COUNTRY": "US", "LATITUDE": 34.4258, "LONGITUDE": -119.8425, "ELEVATION": 2.7, "OBJECTID": 281}},
{"type": "Feature", "geometry": {"type": "Point", "coordinates": [-110.7208, 35.0281]}, "properties": {"STATION_ID": "USW00023194", "STATION_NAME": "WINSLOW MUNI AP", "STATE": "AZ", "COUNTRY": "US", "LATITUDE": 35.0281, "LONGITUDE": -110.7208, "ELEVATION": 1489.3, "OBJECTID": 282}},
{"type": "Feature", "geometry": {"type": "Point", "coordinates": [-121.9333, 38.2667]}, "properties": {"STATION_ID": "USW00023202", "STATION_NAME": "TRAVIS AFB", "STATE": "CA", "COUNTRY": "US", "LATITUDE": 38.2667, "LONGITUDE": -121.9333, "ELEVATION": 18.0, "OBJECTID": 283}},
{"type": "Feature", "geometry": {"type": "Point", "coordinates": [-120.7103, 39.2775]}, "properties": {"STATION_ID": "USW00023225", "STATION_NAME": "BLUE CANYON AP", "STATE": "CA", "COUNTRY": "US", "LATITUDE": 39.2775, "LONGITUDE": -120.7103, "ELEVATION": 1608.1, "OBJECTID": 284}},
{"type": "Feature", "geometry": {"type": "Point", "coordinates": [-122.2208, 37.7214]}, "properties": {"STATION_ID": "USW00023230", "STATION_NAME": "OAKLAND METRO INTL AP", "STATE": "CA", "COUNTRY": "US", "LATITUDE": 37.7214, "LONGITUDE": -122.2208, "ELEVATION": 1.8, "OBJECTID": 285}},
{"type": "Feature", "geometry": {"type": "Point", "coordinates": [-121.495, 38.5069]}, "properties": {"STATION_ID": "USW00023232", "STATION_NAME": "SACRAMENTO EXECUTIVE AP", "STATE": "CA", "COUNTRY": "US", "LATITUDE": 38.5069, "LONGITUDE": -121.495, "ELEVATION": 4.6, "OBJECTID": 286}},
{"type": "Feature", "geometry": {"type": "Point", "coordinates": [-122.3647, 37.6197]}, "properties": {"STATION_ID": "USW00023234", "STATION_NAME": "SAN FRANCISCO INTL AP", "STATE": "CA", "COUNTRY": "US", "LATITUDE": 37.6197, "LONGITUDE": -122.3647, "ELEVATION": 2.4, "OBJECTID": 287}},
{"type": "Feature", "geometry": {"type": "Point", "coordinates": [-121.2258, 37.8892]}, "properties": {"STATION_ID": "USW00023237", "STATION_NAME": "STOCKTON METRO AP", "STATE": "CA", "COUNTRY": "US", "LATITUDE": 37.8892, "LONGITUDE": -121.2258, "ELEVATION": 7.9, "OBJECTID": 288}},
{"type": "Feature", "geometry": {"type": "Point", "coordinates": [-120.4486, 34.8994]}, "properties": {"STATION_ID": "USW00023273", "STATION_NAME": "SANTA MARIA PUBLIC AP", "STATE": "CA", "COUNTRY": "US", "LATITUDE": 34.8994, "LONGITUDE": -120.4486, "ELEVATION": 73.8, "OBJECTID": 289}},
{"type": "Feature", "geometry": {"type": "Point", "coordinates": [-123.2008, 39.1258]}, "properties": {"STATION_ID": "USW00023275", "STATION_NAME": "UKIAH MUNI AP", "STATE": "CA", "COUNTRY": "US", "LATITUDE": 39.1258, "LONGITUDE": -123.2008, "ELEVATION": 183.2, "OBJECTID": 290}},
{"type": "Feature", "geometry": {"type": "Point", "coordinates": [-103.1, 44.15]}, "properties": {"STATION_ID": "USW00024006", "STATION_NAME": "ELLSWORTH AFB", "STATE": "SD", "COUNTRY": "US", "LATITUDE": 44.15, "LONGITUDE": -103.1, "ELEVATION": 979.9, "OBJECTID": 291}},
{"type": "Feature", "geometry": {"type": "Point", "coordinates": [-100.7603, 46.7708]}, "properties": {"STATION_ID": "USW00024011", "STATION_NAME": "BISMARCK", "STATE": "ND", "COUNTRY": "US", "LATITUDE": 46.7708, "LONGITUDE": -100.7603, "ELEVATION": 505.4, "OBJECTID": 292}},
{"type": "Feature", "geometry": {"type": "Point", "coordinates": [-101.2733, 48.2553]}, "properties": {"STATION_ID": "USW00024013", "STATION_NAME": "MINOT INTL AP", "STATE": "ND", "COUNTRY": "US", "LATITUDE": 48.2553, "LONGITUDE": -101.2733, "ELEVATION": 507.5, "OBJECTID": 293}},
{"type": "Feature", "geometry": {"type": "Point", "coordinates": [-103.2167, 40.1667]}, "properties": {"STATION_ID": "USW00024015", "STATION_NAME": "AKRON WASHINGTON CO AP", "STATE": "CO", "COUNTRY": "US", "LATITUDE": 40.1667, "LONGITUDE": -103.2167, "ELEVATION": 1421.3, "OBJECTID": 294}},
{"type": "Feature", "geometry": {"type": "Point", "coordinates": [-104.8061, 41.1519]}, "properties": {"STATION_ID": "USW00024018", "STATION_NAME": "CHEYENNE", "STATE": "WY", "COUNTRY": "US", "LATITUDE": 41.1519, "LONGITUDE": -104.8061, "ELEVATION": 1867.8, "OBJECTID": 295}},
{"type": "Feature", "geometry": {"type": "Point", "coordinates": [-108.7261, 42.8153]}, "properties": {"STATION_ID": "USW00024021", "STATION_NAME": "LANDER HUNT FLD AP", "STATE": "WY", "COUNTRY": "US", "LATITUDE": 42.8153, "LONGITUDE": -108.7261, "ELEVATION": 1704.4, "OBJECTID": 296}},
{"type": "Feature", "geometry": {"type": "Point", "coordinates": [-105.6747, 41.3119]}, "properties": {"STATION_ID": "USW00024022", "STATION_NAME": "LARAMIE RGNL AP", "STATE": "WY", "COUNTRY": "US", "LATITUDE": 41.3119, "LONGITUDE": -105.6747, "ELEVATION": 2214.7, "OBJECTID": 297}},
{"type": "Feature", "geometry": {"type": "Point", "coordinates": [-100.6694, 41.1214]}, "properties": {"STATION_ID": "USW00024023", "STATION_NAME": "NORTH PLATTE RGNL AP", "STATE": "NE", "COUNTRY": "US", "LATITUDE": 41.1214, "LONGITUDE": -100.6694, "ELEVATION": 846.7, "OBJECTID": 298}},
{"type": "Feature", "geometry": {"type": "Point", "coordinates": [-109.0528, 41.5944]}, "properties": {"STATION_ID": "USW00024027", "STATION_NAME": "ROCK SPRINGS AP", "STATE": "WY", "COUNTRY": "US", "LATITUDE": 41.5944, "LONGITUDE": -109.0528, "ELEVATION": 2054.7, "OBJECTID": 299}},
{"type": "Feature", "geometry": {"type": "Point", "coordinates": [-103.5931, 41.8706]}, "properties": {"STATION_ID": "USW00024028", "STATION_NAME": "SCOTTSBLUFF HEILIG AP", "STATE": "NE", "COUNTRY": "US", "LATITUDE": 41.8706, "LONGITUDE": -103.5931, "ELEVATION": 1202.4, "OBJECTID": 300}},
{"type": "Feature", "geometry": {"type": "Point", "coordinates": [-106.9689, 44.7694]}, "properties": {"STATION_ID": "USW00024029", "STATION_NAME": "SHERIDAN CO AP", "STATE": "WY", "COUNTRY": "US", "LATITUDE": 44.7694, "LONGITUDE": -106.9689, "ELEVATION": 1202.4, "OBJECTID": 301}},
{"type": "Feature", "geometry": {"type": "Point", "coordinates": [-102.9847, 41.1014]}, "properties": {"STATION_ID": "USW00024030", "STATION_NAME": "SIDNEY MUNI AP", "STATE": "NE", "COUNTRY": "US", "LATITUDE": 41.1014, "LONGITUDE": -102.9847, "ELEVATION": 1313.4, "OBJECTID": 302}},
{"type": "Feature", "geometry": {"type": "Point", "coordinates": [-100.55, 42.8783]}, "properties": {"STATION_ID": "USW00024032", "STATION_NAME": "VALENTINE MILLER FLD", "STATE": "NE", "COUNTRY": "US", "LATITUDE": 42.8783, "LONGITUDE": -100.55, "ELEVATION": 789.4, "OBJECTID": 303}},
{"type": "Feature", "geometry": {"type": "Point", "coordinates": [-108.5422, 45.8069]}, "properties": {"STATION_ID": "USW00024033", "STATION_NAME": "BILLINGS LOGAN INTL AP", "STATE": "MT", "COUNTRY": "US", "LATITUDE": 45.8069, "LONGITUDE": -108.5422, "ELEVATION": 1091.5, "OBJECTID": 304}},
{"type": "Feature", "geometry": {"type": "Point", "coordinates": [-109.4578, 47.0492]}, "properties": {"STATION_ID": "USW00024036", "STATION_NAME": "LEWISTOWN MUNI AP", "STATE": "MT", "COUNTRY": "US", "LATITUDE": 47.0492, "LONGITUDE": -109.4578, "ELEVATION": 1263.4, "OBJECTID": 305}},
{"type": "Feature", "geometry": {"type": "Point", "coordinates": [-105.8825, 46.4267]}, "properties": {"STATION_ID": "USW00024037", "STATION_NAME": "MILES CITY F WILEY FLD", "STATE": "MT", "COUNTRY": "US", "LATITUDE": 46.4267, "LONGITUDE": -105.8825, "ELEVATION": 799.8, "OBJECTID": 306}},
{"type": "Feature", "geometry": {"type": "Point", "coordinates": [-107.5211, 40.4953]}, "properties": {"STATION_ID": "USW00024046", "STATION_NAME": "CRAIG MOFFAT CO AP", "STATE": "CO", "COUNTRY": "US", "LATITUDE": 40.4953, "LONGITUDE": -107.5211, "ELEVATION": 1885.5, "OBJECTID": 307}},
{"type": "Feature", "geometry": {"type": "Point", "coordinates": [-106.4636, 42.8975]}, "properties": {"STATION_ID": "USW00024089", "STATION_NAME": "CASPER NATRONA CO AP", "STATE": "WY", "COUNTRY": "US", "LATITUDE": 42.8975, "LONGITUDE": -106.4636, "ELEVATION": 1627.0, "OBJECTID": 308}},
{"type": "Feature", "geometry": {"type": "Point", "coordinates": [-103.0536, 44.0433]}, "properties": {"STATION_ID": "USW00024090", "STATION_NAME": "RAPID CITY RGNL AP", "STATE": "SD", "COUNTRY": "US", "LATITUDE": 44.0433, "LONGITUDE": -103.0536, "ELEVATION": 963.2, "OBJECTID": 309}},
{"type": "Feature", "geometry": {"type": "Point", "coordinates": [-111.9667, 41.1167]}, "properties": {"STATION_ID": "USW00024101", "STATION_NAME": "OGDEN HILL AFB", "STATE": "UT", "COUNTRY": "US", "LATITUDE": 41.1167, "LONGITUDE": -111.9667, "ELEVATION": 1459.1, "OBJECTID": 310}},
{"type": "Feature", "geometry": {"type": "Point", "coordinates": [-115.8667, 43.05]}, "properties": {"STATION_ID": "USW00024106", "STATION_NAME": "MTN HOME AFB", "STATE": "ID", "COUNTRY": "US", "LATITUDE": 43.05, "LONGITUDE": -115.8667, "ELEVATION": 912.0, "OBJECTID": 311}},
{"type": "Feature", "geometry": {"type": "Point", "coordinates": [-117.65, 47.6333]}, "properties": {"STATION_ID": "USW00024114", "STATION_NAME": "FAIRCHILD AFB", "STATE": "WA", "COUNTRY": "US", "LATITUDE": 47.6333, "LONGITUDE": -117.65, "ELEVATION": 743.1, "OBJECTID": 312}},
{"type": "Feature", "geometry": {"type": "Point", "coordinates": [-115.7886, 40.8289]}, "properties": {"STATION_ID": "USW00024121", "STATION_NAME": "ELKO RGNL AP", "STATE": "NV", "COUNTRY": "US", "LATITUDE": 40.8289, "LONGITUDE": -115.7886, "ELEVATION": 1533.1, "OBJECTID": 313}},
{"type": "Feature", "geometry": {"type": "Point", "coordinates": [-111.9694, 40.7781]}, "properties": {"STATION_ID": "USW00024127", "STATION_NAME": "SALT LAKE CITY INTL AP", "STATE": "UT", "COUNTRY": "US", "LATITUDE": 40.7781, "LONGITUDE": -111.9694, "ELEVATION": 1287.8, "OBJECTID": 314}},
{"type": "Feature", "geometry": {"type": "Point", "coordinates": [-117.8081, 40.9017]}, "properties": {"STATION_ID": "USW00024128", "STATION_NAME": "WINNEMUCCA MUNI AP", "STATE": "NV", "COUNTRY": "US", "LATITUDE": 40.9017, "LONGITUDE": -117.8081, "ELEVATION": 1309.4, "OBJECTID": 315}},
{"type": "Feature", "geometry": {"type": "Point", "coordinates": [-117.8086, 44.8428]}, "properties": {"STATION_ID": "USW00024130", "STATION_NAME": "BAKER CITY MUNI AP", "STATE": "OR", "COUNTRY": "US", "LATITUDE": 44.8428, "LONGITUDE": -117.8086, "ELEVATION": 1024.4, "OBJECTID": 316}},
{"type": "Feature", "geometry": {"type": "Point", "coordinates": [-116.2406, 43.5667]}, "properties": {"STATION_ID": "USW00024131", "STATION_NAME": "BOISE AIR TERMINAL", "STATE": "ID", "COUNTRY": "US", "LATITUDE": 43.5667, "LONGITUDE": -116.2406, "ELEVATION": 857.7, "OBJECTID": 317}},
{"type": "Feature", "geometry": {"type": "Point", "coordinates": [-111.1608, 45.7881]}, "properties": {"STATION_ID": "USW00024132", "STATION_NAME": "BOZEMAN GALLATIN FLD", "STATE": "MT", "COUNTRY": "US", "LATITUDE": 45.7881, "LONGITUDE": -111.1608, "ELEVATION": 1349.3, "OBJECTID": 318}},
{"type": "Feature", "geometry": {"type": "Point", "coordinates": [-111.3822, 47.4733]}, "properties": {"STATION_ID": "USW00024143", "STATION_NAME": "GREAT FALLS INTL AP", "STATE": "MT", "COUNTRY": "US", "LATITUDE": 47.4733, "LONGITUDE": -111.3822, "ELEVATION": 1116.8, "OBJECTID": 319}},
{"type": "Feature", "geometry": {"type": "Point", "coordinates": [-111.9636, 46.6056]}, "properties": {"STATION_ID": "USW00024144", "STATION_NAME": "HELENA RGNL AP", "STATE": "MT", "COUNTRY": "US", "LATITUDE": 46.6056, "LONGITUDE": -111.9636, "ELEVATION": 1166.8, "OBJECTID": 320}},
{"type": "Feature", "geometry": {"type": "Point", "coordinates": [-117.0156, 46.3747]}, "properties": {"STATION_ID": "USW00024149", "STATION_NAME": "LEWISTON NEZ PERCE CO AP", "STATE": "ID", "COUNTRY": "US", "LATITUDE": 46.3747, "LONGITUDE": -117.0156, "ELEVATION": 437.7, "OBJECTID": 321}},
{"type": "Feature", "geometry": {"type": "Point", "coordinates": [-118.4247, 45.5114]}, "properties": {"STATION_ID": "USW00024152", "STATION_NAME": "MEACHAM", "STATE": "OR", "COUNTRY": "US", "LATITUDE": 45.5114, "LONGITUDE": -118.4247, "ELEVATION": 1134.8, "OBJECTID": 322}},
{"type": "Feature", "geometry": {"type": "Point", "coordinates": [-114.0925, 46.9208]}, "properties": {"STATION_ID": "USW00024153", "STATION_NAME": "MISSOULA INTL AP", "STATE": "MT", "COUNTRY": "US", "LATITUDE": 46.9208, "LONGITUDE": -114.0925, "ELEVATION": 972.9, "OBJECTID": 323}},
{"type": "Feature", "geometry": {"type": "Point", "coordinates": [-118.8528, 45.6906]}, "properties": {"STATION_ID": "USW00024155", "STATION_NAME": "PENDLETON", "STATE": "OR", "COUNTRY": "US", "LATITUDE": 45.6906, "LONGITUDE": -118.8528, "ELEVATION": 461.8, "OBJECTID": 324}},
{"type": "Feature", "geometry": {"type": "Point", "coordinates": [-112.5711, 42.9203]}, "properties": {"STATION_ID": "USW00024156", "STATION_NAME": "POCATELLO RGNL AP", "STATE": "ID", "COUNTRY": "US", "LATITUDE": 42.9203, "LONGITUDE": -112.5711, "ELEVATION": 1364.9, "OBJECTID": 325}},
{"type": "Feature", "geometry": {"type": "Point", "coordinates": [-117.5281, 47.6217]}, "properties": {"STATION_ID": "USW00024157", "STATION_NAME": "SPOKANE INTL AP", "STATE": "WA", "COUNTRY": "US", "LATITUDE": 47.6217, "LONGITUDE": -117.5281, "ELEVATION": 717.2, "OBJECTID": 326}},
{"type": "Feature", "geometry": {"type": "Point", "coordinates": [-118.2869, 46.0947]}, "properties": {"STATION_ID": "USW00024160", "STATION_NAME": "WALLA WALLA RGNL AP", "STATE": "WA", "COUNTRY": "US", "LATITUDE": 46.0947, "LONGITUDE": -118.2869, "ELEVATION": 355.4, "OBJECTID": 327}},
{"type": "Feature", "geometry": {"type": "Point", "coordinates": [-110.1075, 42.5844]}, "properties": {"STATION_ID": "USW00024164", "STATION_NAME": "BIG PINEY MARBLETON AP", "STATE": "WY", "COUNTRY": "US", "LATITUDE": 42.5844, "LONGITUDE": -110.1075, "ELEVATION": 2124.5, "OBJECTID": 328}},
{"type": "Feature", "geometry": {"type": "Point", "coordinates": [-118.5692, 40.0681]}, "properties": {"STATION_ID": "USW00024172", "STATION_NAME": "LOVELOCK DERBY FLD", "STATE": "NV", "COUNTRY": "US", "LATITUDE": 40.0681, "LONGITUDE": -118.5692, "ELEVATION": 1189.3, "OBJECTID": 329}},
{"type": "Feature", "geometry": {"type": "Point", "coordinates": [-122.4833, 47.15]}, "properties": {"STATION_ID": "USW00024207", "STATION_NAME": "TACOMA MCCHORD AFB", "STATE": "WA", "COUNTRY": "US", "LATITUDE": 47.15, "LONGITUDE": -122.4833, "ELEVATION": 88.1, "OBJECTID": 330}},
{"type": "Feature", "geometry": {"type": "Point", "coordinates": [-122.3328, 41.3325]}, "properties": {"STATION_ID": "USW00024215", "STATION_NAME": "MT SHASTA", "STATE": "CA", "COUNTRY": "US", "LATITUDE": 41.3325, "LONGITUDE": -122.3328, "ELEVATION": 1077.5, "OBJECTID": 331}},
{"type": "Feature", "geometry": {"type": "Point", "coordinates": [-122.2536, 40.1519]}, "properties": {"STATION_ID": "USW00024216", "STATION_NAME": "RED BLUFF MUNI AP", "STATE": "CA", "COUNTRY": "US", "LATITUDE": 40.1519, "LONGITUDE": -122.2536, "ELEVATION": 107.6, "OBJECTID": 332}},
{"type": "Feature", "geometry": {"type": "Point", "coordinates": [-122.5372, 48.7939]}, "properties": {"STATION_ID": "USW00024217", "STATION_NAME": "BELLINGHAM INTL AP", "STATE": "WA", "COUNTRY": "US", "LATITUDE": 48.7939, "LONGITUDE": -122.5372, "ELEVATION": 45.4, "OBJECTID": 333}},
{"type": "Feature", "geometry": {"type": "Point", "coordinates": [-123.2206, 44.1278]}, "properties": {"STATION_ID": "USW00024221", "STATION_NAME": "EUGENE MAHLON SWEET AP", "STATE": "OR", "COUNTRY": "US", "LATITUDE": 44.1278, "LONGITUDE": -123.2206, "ELEVATION": 107.6, "OBJECTID": 334}},
{"type": "Feature", "geometry": {"type": "Point", "coordinates": [-122.8722, 42.3811]}, "properties": {"STATION_ID": "USW00024225", "STATION_NAME": "MEDFORD ROGUE VLY AP", "STATE": "OR", "COUNTRY": "US", "LATITUDE": 42.3811, "LONGITUDE": -122.8722, "ELEVATION": 395.3, "OBJECTID": 335}},
{"type": "Feature", "geometry": {"type": "Point", "coordinates": [-122.9033, 46.9733]}, "properties": {"STATION_ID": "USW00024227", "STATION_NAME": "OLYMPIA AP", "STATE": "WA", "COUNTRY": "US", "LATITUDE": 46.9733, "LONGITUDE": -122.9033, "ELEVATION": 57.3, "OBJECTID": 336}},
{"type": "Feature", "geometry": {"type": "Point", "coordinates": [-122.6003, 45.5908]}, "properties": {"STATION_ID": "USW00024229", "STATION_NAME": "PORTLAND INTL AP", "STATE": "OR", "COUNTRY": "US", "LATITUDE": 45.5908, "LONGITUDE": -122.6003, "ELEVATION": 5.8, "OBJECTID": 337}},
{"type": "Feature", "geometry": {"type": "Point", "coordinates": [-123.0011, 44.905]}, "properties": {"STATION_ID": "USW00024232", "STATION_NAME": "SALEM MCNARY FLD", "STATE": "OR", "COUNTRY": "US", "LATITUDE": 44.905, "LONGITUDE": -123.0011, "ELEVATION": 62.5, "OBJECTID": 338}},
{"type": "Feature", "geometry": {"type": "Point", "coordinates": [-122.3139, 47.4444]}, "properties": {"STATION_ID": "USW00024233", "STATION_NAME": "SEATTLE TACOMA INTL AP", "STATE": "WA", "COUNTRY": "US", "LATITUDE": 47.4444, "LONGITUDE": -122.3139, "ELEVATION": 112.8, "OBJECTID": 339}},
{"type": "Feature", "geometry": {"type": "Point", "coordinates": [-122.3008, 47.5303]}, "properties": {"STATION_ID": "USW00024234", "STATION_NAME": "SEATTLE BOEING FLD", "STATE": "WA", "COUNTRY": "US", "LATITUDE": 47.5303, "LONGITUDE": -122.3008, "ELEVATION": 6.1, "OBJECTID": 340}},
{"type": "Feature", "geometry": {"type": "Point", "coordinates": [-123.3642, 42.6003]}, "properties": {"STATION_ID": "USW00024235", "STATION_NAME": "SEXTON SUMMIT", "STATE": "OR", "COUNTRY": "US", "LATITUDE": 42.6003, "LONGITUDE": -123.3642, "ELEVATION": 1168.0, "OBJECTID": 341}},
{"type": "Feature", "geometry": {"type": "Point", "coordinates": [-120.5428, 46.5683]}, "properties": {"STATION_ID": "USW00024243", "STATION_NAME": "YAKIMA AIR TERMINAL", "STATE": "WA", "COUNTRY": "US", "LATITUDE": 46.5683, "LONGITUDE": -120.5428, "ELEVATION": 324.3, "OBJECTID": 342}},
{"type": "Feature", "geometry": {"type": "Point", "coordinates": [-122.2986, 40.5175]}, "properties": {"STATION_ID": "USW00024257", "STATION_NAME": "REDDING MUNI AP", "STATE": "CA", "COUNTRY": "US", "LATITUDE": 40.5175, "LONGITUDE": -122.2986, "ELEVATION": 151.5, "OBJECTID": 343}},
{"type": "Feature", "geometry": {"type": "Point", "coordinates": [-124.1086, 40.9781]}, "properties": {"STATION_ID": "USW00024283", "STATION_NAME": "ARCATA EUREKA AP", "STATE": "CA", "COUNTRY": "US", "LATITUDE": 40.9781, "LONGITUDE": -124.1086, "ELEVATION": 61.0, "OBJECTID": 344}},
{"type": "Feature", "geometry": {"type": "Point", "coordinates": [-124.2436, 43.4133]}, "properties": {"STATION_ID": "USW00024284", "STATION_NAME": "NORTH BEND RGNL AP", "STATE": "OR", "COUNTRY": "US", "LATITUDE": 43.4133, "LONGITUDE": -124.2436, "ELEVATION": 5.2, "OBJECTID": 345}},
{"type": "Feature", "geometry": {"type": "Point", "coordinates": [-134.5639, 58.3567]}, "properties": {"STATION_ID": "USW00025309", "STATION_NAME": "JUNEAU INTL AP", "STATE": "AK", "COUNTRY": "US", "LATITUDE": 58.3567, "LONGITUDE": -134.5639, "ELEVATION": 4.9, "OBJECTID": 346}},
{"type": "Feature", "geometry": {"type": "Point", "coordinates": [-131.7117, 55.3567]}, "properties": {"STATION_ID": "USW00025325", "STATION_NAME": "KETCHIKAN INTL AP", "STATE": "AK", "COUNTRY": "US", "LATITUDE": 55.3567, "LONGITUDE": -131.7117, "ELEVATION": 23.2, "OBJECTID": 347}},
{"type": "Feature", "geometry": {"type": "Point", "coordinates": [-135.3647, 57.0481]}, "properties": {"STATION_ID": "USW00025333", "STATION_NAME": "SITKA AIRPORT", "STATE": "AK", "COUNTRY": "US", "LATITUDE": 57.0481, "LONGITUDE": -135.3647, "ELEVATION": 4.3, "OBJECTID": 348}},
{"type": "Feature", "geometry": {"type": "Point", "coordinates": [-139.6711, 59.5119]}, "properties": {"STATION_ID": "USW00025339", "STATION_NAME": "YAKUTAT STATE AP", "STATE": "AK", "COUNTRY": "US", "LATITUDE": 59.5119, "LONGITUDE": -139.6711, "ELEVATION": 10.1, "OBJECTID": 349}},
{"type": "Feature", "geometry": {"type": "Point", "coordinates": [-152.4856, 57.7511]}, "properties": {"STATION_ID": "USW00025501", "STATION_NAME": "KODIAK AP", "STATE": "AK", "COUNTRY": "US", "LATITUDE": 57.7511, "LONGITUDE": -152.4856, "ELEVATION": 24.4, "OBJECTID": 350}},
{"type": "Feature", "geometry": {"type": "Point", "coordinates": [-156.6294, 58.6794]}, "properties": {"STATION_ID": "USW00025503", "STATION_NAME": "KING SALMON", "STATE": "AK", "COUNTRY": "US", "LATITUDE": 58.6794, "LONGITUDE": -156.6294, "ELEVATION": 19.2, "OBJECTID": 351}},
{"type": "Feature", "geometry": {"type": "Point", "coordinates": [-154.9089, 59.7494]}, "properties": {"STATION_ID": "USW00025506", "STATION_NAME": "ILIAMNA AP", "STATE": "AK", "COUNTRY": "US", "LATITUDE": 59.7494, "LONGITUDE": -154.9089, "ELEVATION": 43.6, "OBJECTID": 352}},
{"type": "Feature", "geometry": {"type": "Point", "coordinates": [-151.4908, 59.6419]}, "properties": {"STATION_ID": "USW00025507", "STATION_NAME": "HOMER AP", "STATE": "AK", "COUNTRY": "US", "LATITUDE": 59.6419, "LONGITUDE": -151.4908, "ELEVATION": 19.5, "OBJECTID": 353}},
{"type": "Feature", "geometry": {"type": "Point", "coordinates": [-162.7325, 55.2208]},